linear:
  x: 0.29999999999999993
  y: 0.0
  z: 0.0
angular:
  x: 0.0
  y: 0.0
  z: 0.7948717948717952
---
linear:
  x: 0.29999999999999993
  y: 0.0
  z: 0.0
angular:
  x: 0.0
  y: 0.0
  z: 0.6410256410256412
---
linear:
  x: 0.29999999999999993
  y: 0.0
  z: 0.0
angular:
  x: 0.0
  y: 0.0
  z: 0.5384615384615385
---
linear:
  x: 0.29999999999999993
  y: 0.0
  z: 0.0
angular:
  x: 0.0
  y: 0.0
  z: 0.4871794871794873
---
linear:
  x: 0.29999999999999993
  y: 0.0
  z: 0.0
angular:
  x: 0.0
  y: 0.0
  z: 0.38461538461538475
---
linear:
  x: 0.2842105263157894
  y: 0.0
  z: 0.0
angular:
  x: 0.0
  y: 0.0
  z: 0.38461538461538475
---
linear:
  x: 0.29999999999999993
  y: 0.0
  z: 0.0
angular:
  x: 0.0
  y: 0.0
  z: 0.435897435897436
---
linear:
  x: 0.29999999999999993
  y: 0.0
  z: 0.0
angular:
  x: 0.0
  y: 0.0
  z: 0.38461538461538475
---
linear:
  x: 0.29999999999999993
  y: 0.0
  z: 0.0
angular:
  x: 0.0
  y: 0.0
  z: 0.3333333333333335
---
linear:
  x: 0.29999999999999993
  y: 0.0
  z: 0.0
angular:
  x: 0.0
  y: 0.0
  z: 0.23076923076923095
---
linear:
  x: 0.29999999999999993
  y: 0.0
  z: 0.0
angular:
  x: 0.0
  y: 0.0
  z: 0.17948717948717968
---
linear:
  x: 0.29999999999999993
  y: 0.0
  z: 0.0
angular:
  x: 0.0
  y: 0.0
  z: 0.12820512820512842
---
linear:
  x: 0.29999999999999993
  y: 0.0
  z: 0.0
angular:
  x: 0.0
  y: 0.0
  z: 0.07692307692307715
---
linear:
  x: 0.29999999999999993
  y: 0.0
  z: 0.0
angular:
  x: 0.0
  y: 0.0
  z: 0.07692307692307715
---
linear:
  x: 0.29999999999999993
  y: 0.0
  z: 0.0
angular:
  x: 0.0
  y: 0.0
  z: 0.02564102564102587
---
linear:
  x: 0.29999999999999993
  y: 0.0
  z: 0.0
angular:
  x: 0.0
  y: 0.0
  z: 0.0
---
linear:
  x: 0.29999999999999993
  y: 0.0
  z: 0.0
angular:
  x: 0.0
  y: 0.0
  z: 0.07692307692307715
---
linear:
  x: 0.2842105263157894
  y: 0.0
  z: 0.0
angular:
  x: 0.0
  y: 0.0
  z: 0.07692307692307715
---
linear:
  x: 0.29999999999999993
  y: 0.0
  z: 0.0
angular:
  x: 0.0
  y: 0.0
  z: 0.38461538461538475
---
linear:
  x: 0.29999999999999993
  y: 0.0
  z: 0.0
angular:
  x: 0.0
  y: 0.0
  z: 0.23076923076923095
---
linear:
  x: 0.29999999999999993
  y: 0.0
  z: 0.0
angular:
  x: 0.0
  y: 0.0
  z: 0.23076923076923095
---
linear:
  x: 0.29999999999999993
  y: 0.0
  z: 0.0
angular:
  x: 0.0
  y: 0.0
  z: 0.17948717948717968
---
linear:
  x: 0.29999999999999993
  y: 0.0
  z: 0.0
angular:
  x: 0.0
  y: 0.0
  z: 0.2820512820512822
---
linear:
  x: 0.29999999999999993
  y: 0.0
  z: 0.0
angular:
  x: 0.0
  y: 0.0
  z: 0.23076923076923095
---
linear:
  x: 0.29999999999999993
  y: 0.0
  z: 0.0
angular:
  x: 0.0
  y: 0.0
  z: 0.12820512820512842
---
linear:
  x: 0.29999999999999993
  y: 0.0
  z: 0.0
angular:
  x: 0.0
  y: 0.0
  z: 0.17948717948717968
---
linear:
  x: 0.29999999999999993
  y: 0.0
  z: 0.0
angular:
  x: 0.0
  y: 0.0
  z: 0.17948717948717968
---
linear:
  x: 0.29999999999999993
  y: 0.0
  z: 0.0
angular:
  x: 0.0
  y: 0.0
  z: 0.12820512820512842
---
linear:
  x: 0.29999999999999993
  y: 0.0
  z: 0.0
angular:
  x: 0.0
  y: 0.0
  z: 0.17948717948717968
---
linear:
  x: 0.2842105263157894
  y: 0.0
  z: 0.0
angular:
  x: 0.0
  y: 0.0
  z: 0.23076923076923095
---
linear:
  x: 0.29999999999999993
  y: 0.0
  z: 0.0
angular:
  x: 0.0
  y: 0.0
  z: 0.17948717948717968
---
linear:
  x: 0.29999999999999993
  y: 0.0
  z: 0.0
angular:
  x: 0.0
  y: 0.0
  z: -0.02564102564102541
---
linear:
  x: 0.29999999999999993
  y: 0.0
  z: 0.0
angular:
  x: 0.0
  y: 0.0
  z: 0.07692307692307715
---
linear:
  x: 0.29999999999999993
  y: 0.0
  z: 0.0
angular:
  x: 0.0
  y: 0.0
  z: 0.07692307692307715
---
linear:
  x: 0.2842105263157894
  y: 0.0
  z: 0.0
angular:
  x: 0.0
  y: 0.0
  z: 0.17948717948717968
---
linear:
  x: 0.29999999999999993
  y: 0.0
  z: 0.0
angular:
  x: 0.0
  y: 0.0
  z: 0.23076923076923095
---
linear:
  x: 0.29999999999999993
  y: 0.0
  z: 0.0
angular:
  x: 0.0
  y: 0.0
  z: 0.07692307692307715
---
linear:
  x: 0.29999999999999993
  y: 0.0
  z: 0.0
angular:
  x: 0.0
  y: 0.0
  z: 0.17948717948717968
---
linear:
  x: 0.29999999999999993
  y: 0.0
  z: 0.0
angular:
  x: 0.0
  y: 0.0
  z: 0.17948717948717968
---
linear:
  x: 0.29999999999999993
  y: 0.0
  z: 0.0
angular:
  x: 0.0
  y: 0.0
  z: 0.2820512820512822
---
linear:
  x: 0.2842105263157894
  y: 0.0
  z: 0.0
angular:
  x: 0.0
  y: 0.0
  z: 0.2820512820512822
---
linear:
  x: 0.29999999999999993
  y: 0.0
  z: 0.0
angular:
  x: 0.0
  y: 0.0
  z: 0.3333333333333335
---
linear:
  x: 0.2842105263157894
  y: 0.0
  z: 0.0
angular:
  x: 0.0
  y: 0.0
  z: 0.3333333333333335
---
linear:
  x: 0.29999999999999993
  y: 0.0
  z: 0.0
angular:
  x: 0.0
  y: 0.0
  z: 0.38461538461538475
---
linear:
  x: 0.2842105263157894
  y: 0.0
  z: 0.0
angular:
  x: 0.0
  y: 0.0
  z: 0.3333333333333335
---
linear:
  x: 0.29999999999999993
  y: 0.0
  z: 0.0
angular:
  x: 0.0
  y: 0.0
  z: 0.2820512820512822
---
linear:
  x: 0.29999999999999993
  y: 0.0
  z: 0.0
angular:
  x: 0.0
  y: 0.0
  z: 0.2820512820512822
---
linear:
  x: 0.29999999999999993
  y: 0.0
  z: 0.0
angular:
  x: 0.0
  y: 0.0
  z: 0.3333333333333335
---
linear:
  x: 0.2842105263157894
  y: 0.0
  z: 0.0
angular:
  x: 0.0
  y: 0.0
  z: 0.2820512820512822
---
linear:
  x: 0.29999999999999993
  y: 0.0
  z: 0.0
angular:
  x: 0.0
  y: 0.0
  z: 0.3333333333333335
---
linear:
  x: 0.29999999999999993
  y: 0.0
  z: 0.0
angular:
  x: 0.0
  y: 0.0
  z: 0.2820512820512822
---
linear:
  x: 0.29999999999999993
  y: 0.0
  z: 0.0
angular:
  x: 0.0
  y: 0.0
  z: 0.3333333333333335
---
linear:
  x: 0.29999999999999993
  y: 0.0
  z: 0.0
angular:
  x: 0.0
  y: 0.0
  z: 0.23076923076923095
---
linear:
  x: 0.2842105263157894
  y: 0.0
  z: 0.0
angular:
  x: 0.0
  y: 0.0
  z: 0.23076923076923095
---
linear:
  x: 0.29999999999999993
  y: 0.0
  z: 0.0
angular:
  x: 0.0
  y: 0.0
  z: 0.17948717948717968
---
linear:
  x: 0.2842105263157894
  y: 0.0
  z: 0.0
angular:
  x: 0.0
  y: 0.0
  z: 0.12820512820512842
---
linear:
  x: 0.29999999999999993
  y: 0.0
  z: 0.0
angular:
  x: 0.0
  y: 0.0
  z: 0.12820512820512842
---
linear:
  x: 0.29999999999999993
  y: 0.0
  z: 0.0
angular:
  x: 0.0
  y: 0.0
  z: 0.12820512820512842
---
linear:
  x: 0.2842105263157894
  y: 0.0
  z: 0.0
angular:
  x: 0.0
  y: 0.0
  z: 0.12820512820512842
---
linear:
  x: 0.2842105263157894
  y: 0.0
  z: 0.0
angular:
  x: 0.0
  y: 0.0
  z: 0.12820512820512842
---
linear:
  x: 0.2684210526315789
  y: 0.0
  z: 0.0
angular:
  x: 0.0
  y: 0.0
  z: 0.12820512820512842
---
linear:
  x: 0.29999999999999993
  y: 0.0
  z: 0.0
angular:
  x: 0.0
  y: 0.0
  z: 0.12820512820512842
---
linear:
  x: 0.2842105263157894
  y: 0.0
  z: 0.0
angular:
  x: 0.0
  y: 0.0
  z: 0.12820512820512842
---
linear:
  x: 0.2684210526315789
  y: 0.0
  z: 0.0
angular:
  x: 0.0
  y: 0.0
  z: 0.0
---
linear:
  x: 0.2526315789473684
  y: 0.0
  z: 0.0
angular:
  x: 0.0
  y: 0.0
  z: 0.0
---
linear:
  x: 0.23684210526315783
  y: 0.0
  z: 0.0
angular:
  x: 0.0
  y: 0.0
  z: 0.0
---
linear:
  x: 0.2210526315789473
  y: 0.0
  z: 0.0
angular:
  x: 0.0
  y: 0.0
  z: 0.0
---
linear:
  x: 0.2052631578947368
  y: 0.0
  z: 0.0
angular:
  x: 0.0
  y: 0.0
  z: 0.07692307692307715
---
linear:
  x: 0.2052631578947368
  y: 0.0
  z: 0.0
angular:
  x: 0.0
  y: 0.0
  z: 0.12820512820512842
---
linear:
  x: 0.18947368421052627
  y: 0.0
  z: 0.0
angular:
  x: 0.0
  y: 0.0
  z: -0.02564102564102541
---
linear:
  x: 0.17368421052631575
  y: 0.0
  z: 0.0
angular:
  x: 0.0
  y: 0.0
  z: 0.02564102564102587
---
linear:
  x: 0.17368421052631575
  y: 0.0
  z: 0.0
angular:
  x: 0.0
  y: 0.0
  z: 0.12820512820512842
---
linear:
  x: 0.15789473684210523
  y: 0.0
  z: 0.0
angular:
  x: 0.0
  y: 0.0
  z: -0.02564102564102541
---
linear:
  x: 0.1421052631578947
  y: 0.0
  z: 0.0
angular:
  x: 0.0
  y: 0.0
  z: 0.17948717948717968
---
linear:
  x: 0.1421052631578947
  y: 0.0
  z: 0.0
angular:
  x: 0.0
  y: 0.0
  z: -0.07692307692307669
---
linear:
  x: 0.1263157894736842
  y: 0.0
  z: 0.0
angular:
  x: 0.0
  y: 0.0
  z: 0.12820512820512842
---
linear:
  x: 0.1263157894736842
  y: 0.0
  z: 0.0
angular:
  x: 0.0
  y: 0.0
  z: -0.12820512820512797
---
linear:
  x: 0.1263157894736842
  y: 0.0
  z: 0.0
angular:
  x: 0.0
  y: 0.0
  z: 0.12820512820512842
---
linear:
  x: 0.11052631578947367
  y: 0.0
  z: 0.0
angular:
  x: 0.0
  y: 0.0
  z: -0.07692307692307669
---
linear:
  x: 0.11052631578947367
  y: 0.0
  z: 0.0
angular:
  x: 0.0
  y: 0.0
  z: -0.07692307692307669
---
linear:
  x: 0.09473684210526315
  y: 0.0
  z: 0.0
angular:
  x: 0.0
  y: 0.0
  z: 0.02564102564102587
---
linear:
  x: 0.09473684210526315
  y: 0.0
  z: 0.0
angular:
  x: 0.0
  y: 0.0
  z: -0.12820512820512797
---
linear:
  x: 0.09473684210526315
  y: 0.0
  z: 0.0
angular:
  x: 0.0
  y: 0.0
  z: 0.12820512820512842
---
linear:
  x: 0.07894736842105263
  y: 0.0
  z: 0.0
angular:
  x: 0.0
  y: 0.0
  z: 0.07692307692307715
---
linear:
  x: 0.07894736842105263
  y: 0.0
  z: 0.0
angular:
  x: 0.0
  y: 0.0
  z: -0.12820512820512797
---
linear:
  x: 0.07894736842105263
  y: 0.0
  z: 0.0
angular:
  x: 0.0
  y: 0.0
  z: -0.12820512820512797
---
linear:
  x: 0.07894736842105263
  y: 0.0
  z: 0.0
angular:
  x: 0.0
  y: 0.0
  z: 0.12820512820512842
---
linear:
  x: 0.06315789473684211
  y: 0.0
  z: 0.0
angular:
  x: 0.0
  y: 0.0
  z: -0.07692307692307669
---
linear:
  x: 0.06315789473684211
  y: 0.0
  z: 0.0
angular:
  x: 0.0
  y: 0.0
  z: -0.12820512820512797
---
linear:
  x: 0.06315789473684211
  y: 0.0
  z: 0.0
angular:
  x: 0.0
  y: 0.0
  z: -0.07692307692307669
---
linear:
  x: 0.06315789473684211
  y: 0.0
  z: 0.0
angular:
  x: 0.0
  y: 0.0
  z: -0.07692307692307669
---
linear:
  x: 0.06315789473684211
  y: 0.0
  z: 0.0
angular:
  x: 0.0
  y: 0.0
  z: -0.07692307692307669
---
linear:
  x: 0.04736842105263158
  y: 0.0
  z: 0.0
angular:
  x: 0.0
  y: 0.0
  z: 0.12820512820512842
---
linear:
  x: 0.04736842105263158
  y: 0.0
  z: 0.0
angular:
  x: 0.0
  y: 0.0
  z: 0.0
---
linear:
  x: 0.04736842105263158
  y: 0.0
  z: 0.0
angular:
  x: 0.0
  y: 0.0
  z: -0.02564102564102541
---
linear:
  x: 0.04736842105263158
  y: 0.0
  z: 0.0
angular:
  x: 0.0
  y: 0.0
  z: -0.07692307692307669
---
linear:
  x: 0.04736842105263158
  y: 0.0
  z: 0.0
angular:
  x: 0.0
  y: 0.0
  z: -0.07692307692307669
---
linear:
  x: 0.04736842105263158
  y: 0.0
  z: 0.0
angular:
  x: 0.0
  y: 0.0
  z: -0.02564102564102541
---
linear:
  x: 0.031578947368421054
  y: 0.0
  z: 0.0
angular:
  x: 0.0
  y: 0.0
  z: 0.07692307692307715
---
linear:
  x: 0.031578947368421054
  y: 0.0
  z: 0.0
angular:
  x: 0.0
  y: 0.0
  z: 0.02564102564102587
---
linear:
  x: 0.031578947368421054
  y: 0.0
  z: 0.0
angular:
  x: 0.0
  y: 0.0
  z: 0.0
---
linear:
  x: 0.031578947368421054
  y: 0.0
  z: 0.0
angular:
  x: 0.0
  y: 0.0
  z: 0.0
---
linear:
  x: 0.031578947368421054
  y: 0.0
  z: 0.0
angular:
  x: 0.0
  y: 0.0
  z: 0.0
---
linear:
  x: 0.031578947368421054
  y: 0.0
  z: 0.0
angular:
  x: 0.0
  y: 0.0
  z: -0.07692307692307669
---
linear:
  x: 0.0
  y: 0.0
  z: 0.0
angular:
  x: 0.0
  y: 0.0
  z: 0.38461538461538475
---
linear:
  x: 0.0
  y: 0.0
  z: 0.0
angular:
  x: 0.0
  y: 0.0
  z: 0.38461538461538475
---
linear:
  x: 0.0
  y: 0.0
  z: 0.0
angular:
  x: 0.0
  y: 0.0
  z: 0.3333333333333335
---
linear:
  x: 0.0
  y: 0.0
  z: 0.0
angular:
  x: 0.0
  y: 0.0
  z: 0.3333333333333335
---
linear:
  x: 0.0
  y: 0.0
  z: 0.0
angular:
  x: 0.0
  y: 0.0
  z: 0.3333333333333335
---
linear:
  x: 0.0
  y: 0.0
  z: 0.0
angular:
  x: 0.0
  y: 0.0
  z: 0.2820512820512822
---
linear:
  x: 0.0
  y: 0.0
  z: 0.0
angular:
  x: 0.0
  y: 0.0
  z: 0.2820512820512822
---
linear:
  x: 0.0
  y: 0.0
  z: 0.0
angular:
  x: 0.0
  y: 0.0
  z: 0.2820512820512822
---
linear:
  x: 0.0
  y: 0.0
  z: 0.0
angular:
  x: 0.0
  y: 0.0
  z: 0.23076923076923095
---
linear:
  x: 0.0
  y: 0.0
  z: 0.0
angular:
  x: 0.0
  y: 0.0
  z: 0.23076923076923095
---
linear:
  x: 0.0
  y: 0.0
  z: 0.0
angular:
  x: 0.0
  y: 0.0
  z: 0.23076923076923095
---
linear:
  x: 0.0
  y: 0.0
  z: 0.0
angular:
  x: 0.0
  y: 0.0
  z: 0.23076923076923095
---
linear:
  x: 0.0
  y: 0.0
  z: 0.0
angular:
  x: 0.0
  y: 0.0
  z: 0.17948717948717968
---
linear:
  x: 0.0
  y: 0.0
  z: 0.0
angular:
  x: 0.0
  y: 0.0
  z: 0.17948717948717968
---
linear:
  x: 0.0
  y: 0.0
  z: 0.0
angular:
  x: 0.0
  y: 0.0
  z: 0.17948717948717968
---
linear:
  x: 0.0
  y: 0.0
  z: 0.0
angular:
  x: 0.0
  y: 0.0
  z: 0.17948717948717968
---
linear:
  x: 0.0
  y: 0.0
  z: 0.0
angular:
  x: 0.0
  y: 0.0
  z: 0.0
---
linear:
  x: 0.2684210526315789
  y: 0.0
  z: 0.0
angular:
  x: 0.0
  y: 0.0
  z: -1.0
---
linear:
  x: 0.2842105263157894
  y: 0.0
  z: 0.0
angular:
  x: 0.0
  y: 0.0
  z: -0.8974358974358974
---
linear:
  x: 0.2684210526315789
  y: 0.0
  z: 0.0
angular:
  x: 0.0
  y: 0.0
  z: -0.846153846153846
---
linear:
  x: 0.29999999999999993
  y: 0.0
  z: 0.0
angular:
  x: 0.0
  y: 0.0
  z: -0.846153846153846
---
linear:
  x: 0.2684210526315789
  y: 0.0
  z: 0.0
angular:
  x: 0.0
  y: 0.0
  z: -1.0
---
linear:
  x: 0.29999999999999993
  y: 0.0
  z: 0.0
angular:
  x: 0.0
  y: 0.0
  z: -1.0
---
linear:
  x: 0.29999999999999993
  y: 0.0
  z: 0.0
angular:
  x: 0.0
  y: 0.0
  z: -1.0
---
linear:
  x: 0.29999999999999993
  y: 0.0
  z: 0.0
angular:
  x: 0.0
  y: 0.0
  z: -1.0
---
linear:
  x: 0.2842105263157894
  y: 0.0
  z: 0.0
angular:
  x: 0.0
  y: 0.0
  z: -1.0
---
linear:
  x: 0.29999999999999993
  y: 0.0
  z: 0.0
angular:
  x: 0.0
  y: 0.0
  z: -0.9487179487179487
---
linear:
  x: 0.29999999999999993
  y: 0.0
  z: 0.0
angular:
  x: 0.0
  y: 0.0
  z: -0.8974358974358974
---
linear:
  x: 0.29999999999999993
  y: 0.0
  z: 0.0
angular:
  x: 0.0
  y: 0.0
  z: -0.846153846153846
---
linear:
  x: 0.29999999999999993
  y: 0.0
  z: 0.0
angular:
  x: 0.0
  y: 0.0
  z: -0.846153846153846
---
linear:
  x: 0.29999999999999993
  y: 0.0
  z: 0.0
angular:
  x: 0.0
  y: 0.0
  z: -0.7435897435897434
---
linear:
  x: 0.29999999999999993
  y: 0.0
  z: 0.0
angular:
  x: 0.0
  y: 0.0
  z: -0.846153846153846
---
linear:
  x: 0.29999999999999993
  y: 0.0
  z: 0.0
angular:
  x: 0.0
  y: 0.0
  z: -0.7948717948717947
---
linear:
  x: 0.29999999999999993
  y: 0.0
  z: 0.0
angular:
  x: 0.0
  y: 0.0
  z: -0.7435897435897434
---
linear:
  x: 0.29999999999999993
  y: 0.0
  z: 0.0
angular:
  x: 0.0
  y: 0.0
  z: -0.6923076923076921
---
linear:
  x: 0.29999999999999993
  y: 0.0
  z: 0.0
angular:
  x: 0.0
  y: 0.0
  z: -0.5384615384615381
---
linear:
  x: 0.29999999999999993
  y: 0.0
  z: 0.0
angular:
  x: 0.0
  y: 0.0
  z: -0.48717948717948684
---
linear:
  x: 0.29999999999999993
  y: 0.0
  z: 0.0
angular:
  x: 0.0
  y: 0.0
  z: -0.846153846153846
---
linear:
  x: 0.2842105263157894
  y: 0.0
  z: 0.0
angular:
  x: 0.0
  y: 0.0
  z: -0.7948717948717947
---
linear:
  x: 0.29999999999999993
  y: 0.0
  z: 0.0
angular:
  x: 0.0
  y: 0.0
  z: -0.6923076923076921
---
linear:
  x: 0.29999999999999993
  y: 0.0
  z: 0.0
angular:
  x: 0.0
  y: 0.0
  z: -0.7435897435897434
---
linear:
  x: 0.29999999999999993
  y: 0.0
  z: 0.0
angular:
  x: 0.0
  y: 0.0
  z: -0.6410256410256407
---
linear:
  x: 0.29999999999999993
  y: 0.0
  z: 0.0
angular:
  x: 0.0
  y: 0.0
  z: -0.6410256410256407
---
linear:
  x: 0.2842105263157894
  y: 0.0
  z: 0.0
angular:
  x: 0.0
  y: 0.0
  z: -0.6923076923076921
---
linear:
  x: 0.2842105263157894
  y: 0.0
  z: 0.0
angular:
  x: 0.0
  y: 0.0
  z: -0.5897435897435894
---
linear:
  x: 0.2842105263157894
  y: 0.0
  z: 0.0
angular:
  x: 0.0
  y: 0.0
  z: -0.43589743589743557
---
linear:
  x: 0.29999999999999993
  y: 0.0
  z: 0.0
angular:
  x: 0.0
  y: 0.0
  z: -0.33333333333333304
---
linear:
  x: 0.29999999999999993
  y: 0.0
  z: 0.0
angular:
  x: 0.0
  y: 0.0
  z: -0.2307692307692305
---
linear:
  x: 0.2842105263157894
  y: 0.0
  z: 0.0
angular:
  x: 0.0
  y: 0.0
  z: -0.2307692307692305
---
linear:
  x: 0.2684210526315789
  y: 0.0
  z: 0.0
angular:
  x: 0.0
  y: 0.0
  z: -0.2307692307692305
---
linear:
  x: 0.2526315789473684
  y: 0.0
  z: 0.0
angular:
  x: 0.0
  y: 0.0
  z: -0.17948717948717924
---
linear:
  x: 0.23684210526315783
  y: 0.0
  z: 0.0
angular:
  x: 0.0
  y: 0.0
  z: -0.17948717948717924
---
linear:
  x: 0.2210526315789473
  y: 0.0
  z: 0.0
angular:
  x: 0.0
  y: 0.0
  z: -0.17948717948717924
---
linear:
  x: 0.2210526315789473
  y: 0.0
  z: 0.0
angular:
  x: 0.0
  y: 0.0
  z: -0.17948717948717924
---
linear:
  x: 0.2052631578947368
  y: 0.0
  z: 0.0
angular:
  x: 0.0
  y: 0.0
  z: -0.17948717948717924
---
linear:
  x: 0.18947368421052627
  y: 0.0
  z: 0.0
angular:
  x: 0.0
  y: 0.0
  z: -0.17948717948717924
---
linear:
  x: 0.17368421052631575
  y: 0.0
  z: 0.0
angular:
  x: 0.0
  y: 0.0
  z: -0.12820512820512797
---
linear:
  x: 0.17368421052631575
  y: 0.0
  z: 0.0
angular:
  x: 0.0
  y: 0.0
  z: -0.17948717948717924
---
linear:
  x: 0.15789473684210523
  y: 0.0
  z: 0.0
angular:
  x: 0.0
  y: 0.0
  z: -0.12820512820512797
---
linear:
  x: 0.15789473684210523
  y: 0.0
  z: 0.0
angular:
  x: 0.0
  y: 0.0
  z: -0.12820512820512797
---
linear:
  x: 0.1421052631578947
  y: 0.0
  z: 0.0
angular:
  x: 0.0
  y: 0.0
  z: -0.12820512820512797
---
linear:
  x: 0.1421052631578947
  y: 0.0
  z: 0.0
angular:
  x: 0.0
  y: 0.0
  z: -0.12820512820512797
---
linear:
  x: 0.1263157894736842
  y: 0.0
  z: 0.0
angular:
  x: 0.0
  y: 0.0
  z: -0.07692307692307669
---
linear:
  x: 0.1263157894736842
  y: 0.0
  z: 0.0
angular:
  x: 0.0
  y: 0.0
  z: -0.12820512820512797
---
linear:
  x: 0.11052631578947367
  y: 0.0
  z: 0.0
angular:
  x: 0.0
  y: 0.0
  z: -0.02564102564102541
---
linear:
  x: 0.11052631578947367
  y: 0.0
  z: 0.0
angular:
  x: 0.0
  y: 0.0
  z: -0.12820512820512797
---
linear:
  x: 0.11052631578947367
  y: 0.0
  z: 0.0
angular:
  x: 0.0
  y: 0.0
  z: -0.07692307692307669
---
linear:
  x: 0.09473684210526315
  y: 0.0
  z: 0.0
angular:
  x: 0.0
  y: 0.0
  z: -0.07692307692307669
---
linear:
  x: 0.09473684210526315
  y: 0.0
  z: 0.0
angular:
  x: 0.0
  y: 0.0
  z: -0.12820512820512797
---
linear:
  x: 0.07894736842105263
  y: 0.0
  z: 0.0
angular:
  x: 0.0
  y: 0.0
  z: 0.02564102564102587
---
linear:
  x: 0.07894736842105263
  y: 0.0
  z: 0.0
angular:
  x: 0.0
  y: 0.0
  z: -0.07692307692307669
---
linear:
  x: 0.07894736842105263
  y: 0.0
  z: 0.0
angular:
  x: 0.0
  y: 0.0
  z: -0.12820512820512797
---
linear:
  x: 0.07894736842105263
  y: 0.0
  z: 0.0
angular:
  x: 0.0
  y: 0.0
  z: -0.07692307692307669
---
linear:
  x: 0.06315789473684211
  y: 0.0
  z: 0.0
angular:
  x: 0.0
  y: 0.0
  z: 0.07692307692307715
---
linear:
  x: 0.06315789473684211
  y: 0.0
  z: 0.0
angular:
  x: 0.0
  y: 0.0
  z: -0.07692307692307669
---
linear:
  x: 0.06315789473684211
  y: 0.0
  z: 0.0
angular:
  x: 0.0
  y: 0.0
  z: -0.12820512820512797
---
linear:
  x: 0.06315789473684211
  y: 0.0
  z: 0.0
angular:
  x: 0.0
  y: 0.0
  z: -0.07692307692307669
---
linear:
  x: 0.04736842105263158
  y: 0.0
  z: 0.0
angular:
  x: 0.0
  y: 0.0
  z: 0.12820512820512842
---
linear:
  x: 0.04736842105263158
  y: 0.0
  z: 0.0
angular:
  x: 0.0
  y: 0.0
  z: 0.0
---
linear:
  x: 0.04736842105263158
  y: 0.0
  z: 0.0
angular:
  x: 0.0
  y: 0.0
  z: -0.07692307692307669
---
linear:
  x: 0.04736842105263158
  y: 0.0
  z: 0.0
angular:
  x: 0.0
  y: 0.0
  z: -0.12820512820512797
---
linear:
  x: 0.04736842105263158
  y: 0.0
  z: 0.0
angular:
  x: 0.0
  y: 0.0
  z: 0.17948717948717968
---
linear:
  x: 0.04736842105263158
  y: 0.0
  z: 0.0
angular:
  x: 0.0
  y: 0.0
  z: 0.12820512820512842
---
linear:
  x: 0.04736842105263158
  y: 0.0
  z: 0.0
angular:
  x: 0.0
  y: 0.0
  z: 0.12820512820512842
---
linear:
  x: 0.04736842105263158
  y: 0.0
  z: 0.0
angular:
  x: 0.0
  y: 0.0
  z: 0.07692307692307715
---
linear:
  x: 0.04736842105263158
  y: 0.0
  z: 0.0
angular:
  x: 0.0
  y: 0.0
  z: 0.02564102564102587
---
linear:
  x: 0.04736842105263158
  y: 0.0
  z: 0.0
angular:
  x: 0.0
  y: 0.0
  z: 0.0
---
linear:
  x: 0.0
  y: 0.0
  z: 0.0
angular:
  x: 0.0
  y: 0.0
  z: 0.02564102564102587
---
linear:
  x: 0.0
  y: 0.0
  z: 0.0
angular:
  x: 0.0
  y: 0.0
  z: 0.02564102564102587
---
linear:
  x: 0.0
  y: 0.0
  z: 0.0
angular:
  x: 0.0
  y: 0.0
  z: -0.6923076923076921
---
linear:
  x: 0.0
  y: 0.0
  z: 0.0
angular:
  x: 0.0
  y: 0.0
  z: -0.6410256410256407
---
linear:
  x: 0.0
  y: 0.0
  z: 0.0
angular:
  x: 0.0
  y: 0.0
  z: -0.5897435897435894
---
linear:
  x: 0.0
  y: 0.0
  z: 0.0
angular:
  x: 0.0
  y: 0.0
  z: -0.5384615384615381
---
linear:
  x: 0.0
  y: 0.0
  z: 0.0
angular:
  x: 0.0
  y: 0.0
  z: -0.5384615384615381
---
linear:
  x: 0.0
  y: 0.0
  z: 0.0
angular:
  x: 0.0
  y: 0.0
  z: -0.48717948717948684
---
linear:
  x: 0.0
  y: 0.0
  z: 0.0
angular:
  x: 0.0
  y: 0.0
  z: -0.43589743589743557
---
linear:
  x: 0.0
  y: 0.0
  z: 0.0
angular:
  x: 0.0
  y: 0.0
  z: -0.43589743589743557
---
linear:
  x: 0.0
  y: 0.0
  z: 0.0
angular:
  x: 0.0
  y: 0.0
  z: -0.43589743589743557
---
linear:
  x: 0.0
  y: 0.0
  z: 0.0
angular:
  x: 0.0
  y: 0.0
  z: -0.3846153846153843
---
linear:
  x: 0.0
  y: 0.0
  z: 0.0
angular:
  x: 0.0
  y: 0.0
  z: -0.3846153846153843
---
linear:
  x: 0.0
  y: 0.0
  z: 0.0
angular:
  x: 0.0
  y: 0.0
  z: -0.33333333333333304
---
linear:
  x: 0.0
  y: 0.0
  z: 0.0
angular:
  x: 0.0
  y: 0.0
  z: -0.33333333333333304
---
linear:
  x: 0.0
  y: 0.0
  z: 0.0
angular:
  x: 0.0
  y: 0.0
  z: -0.28205128205128177
---
linear:
  x: 0.0
  y: 0.0
  z: 0.0
angular:
  x: 0.0
  y: 0.0
  z: -0.28205128205128177
---
linear:
  x: 0.0
  y: 0.0
  z: 0.0
angular:
  x: 0.0
  y: 0.0
  z: -0.28205128205128177
---
linear:
  x: 0.0
  y: 0.0
  z: 0.0
angular:
  x: 0.0
  y: 0.0
  z: -0.28205128205128177
---
linear:
  x: 0.0
  y: 0.0
  z: 0.0
angular:
  x: 0.0
  y: 0.0
  z: -0.2307692307692305
---
linear:
  x: 0.0
  y: 0.0
  z: 0.0
angular:
  x: 0.0
  y: 0.0
  z: -0.2307692307692305
---
linear:
  x: 0.0
  y: 0.0
  z: 0.0
angular:
  x: 0.0
  y: 0.0
  z: -0.2307692307692305
---
linear:
  x: 0.0
  y: 0.0
  z: 0.0
angular:
  x: 0.0
  y: 0.0
  z: -0.17948717948717924
---
linear:
  x: 0.0
  y: 0.0
  z: 0.0
angular:
  x: 0.0
  y: 0.0
  z: -0.17948717948717924
---
linear:
  x: 0.0
  y: 0.0
  z: 0.0
angular:
  x: 0.0
  y: 0.0
  z: -0.17948717948717924
---
linear:
  x: 0.0
  y: 0.0
  z: 0.0
angular:
  x: 0.0
  y: 0.0
  z: -0.17948717948717924
---
linear:
  x: 0.0
  y: 0.0
  z: 0.0
angular:
  x: 0.0
  y: 0.0
  z: -0.17948717948717924
---
linear:
  x: 0.0
  y: 0.0
  z: 0.0
angular:
  x: 0.0
  y: 0.0
  z: 0.0
---
linear:
  x: 0.29999999999999993
  y: 0.0
  z: 0.0
angular:
  x: 0.0
  y: 0.0
  z: -0.5384615384615381
---
linear:
  x: 0.29999999999999993
  y: 0.0
  z: 0.0
angular:
  x: 0.0
  y: 0.0
  z: -0.43589743589743557
---
linear:
  x: 0.29999999999999993
  y: 0.0
  z: 0.0
angular:
  x: 0.0
  y: 0.0
  z: -0.43589743589743557
---
linear:
  x: 0.29999999999999993
  y: 0.0
  z: 0.0
angular:
  x: 0.0
  y: 0.0
  z: -0.2307692307692305
---
linear:
  x: 0.29999999999999993
  y: 0.0
  z: 0.0
angular:
  x: 0.0
  y: 0.0
  z: -0.33333333333333304
---
linear:
  x: 0.29999999999999993
  y: 0.0
  z: 0.0
angular:
  x: 0.0
  y: 0.0
  z: -0.12820512820512797
---
linear:
  x: 0.29999999999999993
  y: 0.0
  z: 0.0
angular:
  x: 0.0
  y: 0.0
  z: -0.2307692307692305
---
linear:
  x: 0.29999999999999993
  y: 0.0
  z: 0.0
angular:
  x: 0.0
  y: 0.0
  z: -0.3846153846153843
---
linear:
  x: 0.29999999999999993
  y: 0.0
  z: 0.0
angular:
  x: 0.0
  y: 0.0
  z: -0.3846153846153843
---
linear:
  x: 0.29999999999999993
  y: 0.0
  z: 0.0
angular:
  x: 0.0
  y: 0.0
  z: -0.07692307692307669
---
linear:
  x: 0.29999999999999993
  y: 0.0
  z: 0.0
angular:
  x: 0.0
  y: 0.0
  z: -0.2307692307692305
---
linear:
  x: 0.29999999999999993
  y: 0.0
  z: 0.0
angular:
  x: 0.0
  y: 0.0
  z: -0.02564102564102541
---
linear:
  x: 0.2842105263157894
  y: 0.0
  z: 0.0
angular:
  x: 0.0
  y: 0.0
  z: -0.02564102564102541
---
linear:
  x: 0.29999999999999993
  y: 0.0
  z: 0.0
angular:
  x: 0.0
  y: 0.0
  z: 0.07692307692307715
---
linear:
  x: 0.2842105263157894
  y: 0.0
  z: 0.0
angular:
  x: 0.0
  y: 0.0
  z: 0.07692307692307715
---
linear:
  x: 0.29999999999999993
  y: 0.0
  z: 0.0
angular:
  x: 0.0
  y: 0.0
  z: 0.17948717948717968
---
linear:
  x: 0.2842105263157894
  y: 0.0
  z: 0.0
angular:
  x: 0.0
  y: 0.0
  z: 0.17948717948717968
---
linear:
  x: 0.29999999999999993
  y: 0.0
  z: 0.0
angular:
  x: 0.0
  y: 0.0
  z: 0.17948717948717968
---
linear:
  x: 0.29999999999999993
  y: 0.0
  z: 0.0
angular:
  x: 0.0
  y: 0.0
  z: 0.3333333333333335
---
linear:
  x: 0.29999999999999993
  y: 0.0
  z: 0.0
angular:
  x: 0.0
  y: 0.0
  z: 0.435897435897436
---
linear:
  x: 0.29999999999999993
  y: 0.0
  z: 0.0
angular:
  x: 0.0
  y: 0.0
  z: 0.2820512820512822
---
linear:
  x: 0.29999999999999993
  y: 0.0
  z: 0.0
angular:
  x: 0.0
  y: 0.0
  z: 0.38461538461538475
---
linear:
  x: 0.29999999999999993
  y: 0.0
  z: 0.0
angular:
  x: 0.0
  y: 0.0
  z: 0.3333333333333335
---
linear:
  x: 0.29999999999999993
  y: 0.0
  z: 0.0
angular:
  x: 0.0
  y: 0.0
  z: 0.435897435897436
---
linear:
  x: 0.29999999999999993
  y: 0.0
  z: 0.0
angular:
  x: 0.0
  y: 0.0
  z: 0.5897435897435899
---
linear:
  x: 0.29999999999999993
  y: 0.0
  z: 0.0
angular:
  x: 0.0
  y: 0.0
  z: 0.4871794871794873
---
linear:
  x: 0.29999999999999993
  y: 0.0
  z: 0.0
angular:
  x: 0.0
  y: 0.0
  z: 0.435897435897436
---
linear:
  x: 0.29999999999999993
  y: 0.0
  z: 0.0
angular:
  x: 0.0
  y: 0.0
  z: 0.38461538461538475
---
linear:
  x: 0.2842105263157894
  y: 0.0
  z: 0.0
angular:
  x: 0.0
  y: 0.0
  z: 0.3333333333333335
---
linear:
  x: 0.29999999999999993
  y: 0.0
  z: 0.0
angular:
  x: 0.0
  y: 0.0
  z: 0.38461538461538475
---
linear:
  x: 0.29999999999999993
  y: 0.0
  z: 0.0
angular:
  x: 0.0
  y: 0.0
  z: 0.3333333333333335
---
linear:
  x: 0.29999999999999993
  y: 0.0
  z: 0.0
angular:
  x: 0.0
  y: 0.0
  z: 0.2820512820512822
---
linear:
  x: 0.2684210526315789
  y: 0.0
  z: 0.0
angular:
  x: 0.0
  y: 0.0
  z: 0.2820512820512822
---
linear:
  x: 0.2526315789473684
  y: 0.0
  z: 0.0
angular:
  x: 0.0
  y: 0.0
  z: 0.2820512820512822
---
linear:
  x: 0.23684210526315783
  y: 0.0
  z: 0.0
angular:
  x: 0.0
  y: 0.0
  z: 0.23076923076923095
---
linear:
  x: 0.2210526315789473
  y: 0.0
  z: 0.0
angular:
  x: 0.0
  y: 0.0
  z: 0.23076923076923095
---
linear:
  x: 0.2210526315789473
  y: 0.0
  z: 0.0
angular:
  x: 0.0
  y: 0.0
  z: 0.17948717948717968
---
linear:
  x: 0.2052631578947368
  y: 0.0
  z: 0.0
angular:
  x: 0.0
  y: 0.0
  z: 0.17948717948717968
---
linear:
  x: 0.18947368421052627
  y: 0.0
  z: 0.0
angular:
  x: 0.0
  y: 0.0
  z: 0.17948717948717968
---
linear:
  x: 0.17368421052631575
  y: 0.0
  z: 0.0
angular:
  x: 0.0
  y: 0.0
  z: 0.17948717948717968
---
linear:
  x: 0.17368421052631575
  y: 0.0
  z: 0.0
angular:
  x: 0.0
  y: 0.0
  z: 0.5384615384615385
---
linear:
  x: 0.17368421052631575
  y: 0.0
  z: 0.0
angular:
  x: 0.0
  y: 0.0
  z: 0.38461538461538475
---
linear:
  x: 0.15789473684210523
  y: 0.0
  z: 0.0
angular:
  x: 0.0
  y: 0.0
  z: 0.38461538461538475
---
linear:
  x: 0.1421052631578947
  y: 0.0
  z: 0.0
angular:
  x: 0.0
  y: 0.0
  z: 0.4871794871794873
---
linear:
  x: 0.1421052631578947
  y: 0.0
  z: 0.0
angular:
  x: 0.0
  y: 0.0
  z: 0.3333333333333335
---
linear:
  x: 0.1263157894736842
  y: 0.0
  z: 0.0
angular:
  x: 0.0
  y: 0.0
  z: 0.435897435897436
---
linear:
  x: 0.1263157894736842
  y: 0.0
  z: 0.0
angular:
  x: 0.0
  y: 0.0
  z: 0.3333333333333335
---
linear:
  x: 0.11052631578947367
  y: 0.0
  z: 0.0
angular:
  x: 0.0
  y: 0.0
  z: 0.435897435897436
---
linear:
  x: 0.11052631578947367
  y: 0.0
  z: 0.0
angular:
  x: 0.0
  y: 0.0
  z: 0.2820512820512822
---
linear:
  x: 0.11052631578947367
  y: 0.0
  z: 0.0
angular:
  x: 0.0
  y: 0.0
  z: 0.12820512820512842
---
linear:
  x: 0.09473684210526315
  y: 0.0
  z: 0.0
angular:
  x: 0.0
  y: 0.0
  z: 0.3333333333333335
---
linear:
  x: 0.09473684210526315
  y: 0.0
  z: 0.0
angular:
  x: 0.0
  y: 0.0
  z: 0.17948717948717968
---
linear:
  x: 0.09473684210526315
  y: 0.0
  z: 0.0
angular:
  x: 0.0
  y: 0.0
  z: 0.07692307692307715
---
linear:
  x: 0.07894736842105263
  y: 0.0
  z: 0.0
angular:
  x: 0.0
  y: 0.0
  z: 0.2820512820512822
---
linear:
  x: 0.07894736842105263
  y: 0.0
  z: 0.0
angular:
  x: 0.0
  y: 0.0
  z: 0.12820512820512842
---
linear:
  x: 0.07894736842105263
  y: 0.0
  z: 0.0
angular:
  x: 0.0
  y: 0.0
  z: 0.02564102564102587
---
linear:
  x: 0.07894736842105263
  y: 0.0
  z: 0.0
angular:
  x: 0.0
  y: 0.0
  z: 0.07692307692307715
---
linear:
  x: 0.06315789473684211
  y: 0.0
  z: 0.0
angular:
  x: 0.0
  y: 0.0
  z: 0.23076923076923095
---
linear:
  x: 0.06315789473684211
  y: 0.0
  z: 0.0
angular:
  x: 0.0
  y: 0.0
  z: 0.07692307692307715
---
linear:
  x: 0.06315789473684211
  y: 0.0
  z: 0.0
angular:
  x: 0.0
  y: 0.0
  z: 0.0
---
linear:
  x: 0.0
  y: 0.0
  z: 0.0
angular:
  x: 0.0
  y: 0.0
  z: 0.0
---
linear:
  x: 0.2842105263157894
  y: 0.0
  z: 0.0
angular:
  x: 0.0
  y: 0.0
  z: 0.9487179487179491
---
linear:
  x: 0.2842105263157894
  y: 0.0
  z: 0.0
angular:
  x: 0.0
  y: 0.0
  z: 1.0000000000000004
---
linear:
  x: 0.2842105263157894
  y: 0.0
  z: 0.0
angular:
  x: 0.0
  y: 0.0
  z: 1.0000000000000004
---
linear:
  x: 0.29999999999999993
  y: 0.0
  z: 0.0
angular:
  x: 0.0
  y: 0.0
  z: 0.8461538461538465
---
linear:
  x: 0.29999999999999993
  y: 0.0
  z: 0.0
angular:
  x: 0.0
  y: 0.0
  z: 0.8461538461538465
---
linear:
  x: 0.29999999999999993
  y: 0.0
  z: 0.0
angular:
  x: 0.0
  y: 0.0
  z: 0.9487179487179491
---
linear:
  x: 0.2842105263157894
  y: 0.0
  z: 0.0
angular:
  x: 0.0
  y: 0.0
  z: 0.8974358974358978
---
linear:
  x: 0.2684210526315789
  y: 0.0
  z: 0.0
angular:
  x: 0.0
  y: 0.0
  z: 0.8461538461538465
---
linear:
  x: 0.29999999999999993
  y: 0.0
  z: 0.0
angular:
  x: 0.0
  y: 0.0
  z: 0.8461538461538465
---
linear:
  x: 0.29999999999999993
  y: 0.0
  z: 0.0
angular:
  x: 0.0
  y: 0.0
  z: 0.7435897435897438
---
linear:
  x: 0.2684210526315789
  y: 0.0
  z: 0.0
angular:
  x: 0.0
  y: 0.0
  z: 0.7435897435897438
---
linear:
  x: 0.29999999999999993
  y: 0.0
  z: 0.0
angular:
  x: 0.0
  y: 0.0
  z: 1.0000000000000004
---
linear:
  x: 0.2842105263157894
  y: 0.0
  z: 0.0
angular:
  x: 0.0
  y: 0.0
  z: 0.9487179487179491
---
linear:
  x: 0.29999999999999993
  y: 0.0
  z: 0.0
angular:
  x: 0.0
  y: 0.0
  z: 1.0000000000000004
---
linear:
  x: 0.29999999999999993
  y: 0.0
  z: 0.0
angular:
  x: 0.0
  y: 0.0
  z: 1.0000000000000004
---
linear:
  x: 0.2842105263157894
  y: 0.0
  z: 0.0
angular:
  x: 0.0
  y: 0.0
  z: 0.9487179487179491
---
linear:
  x: 0.29999999999999993
  y: 0.0
  z: 0.0
angular:
  x: 0.0
  y: 0.0
  z: 0.9487179487179491
---
linear:
  x: 0.2842105263157894
  y: 0.0
  z: 0.0
angular:
  x: 0.0
  y: 0.0
  z: 0.8974358974358978
---
linear:
  x: 0.29999999999999993
  y: 0.0
  z: 0.0
angular:
  x: 0.0
  y: 0.0
  z: 0.8461538461538465
---
linear:
  x: 0.2842105263157894
  y: 0.0
  z: 0.0
angular:
  x: 0.0
  y: 0.0
  z: 0.7948717948717952
---
linear:
  x: 0.29999999999999993
  y: 0.0
  z: 0.0
angular:
  x: 0.0
  y: 0.0
  z: 0.7435897435897438
---
linear:
  x: 0.29999999999999993
  y: 0.0
  z: 0.0
angular:
  x: 0.0
  y: 0.0
  z: 0.7435897435897438
---
linear:
  x: 0.29999999999999993
  y: 0.0
  z: 0.0
angular:
  x: 0.0
  y: 0.0
  z: 0.6923076923076925
---
linear:
  x: 0.2842105263157894
  y: 0.0
  z: 0.0
angular:
  x: 0.0
  y: 0.0
  z: 0.6410256410256412
---
linear:
  x: 0.29999999999999993
  y: 0.0
  z: 0.0
angular:
  x: 0.0
  y: 0.0
  z: 0.6410256410256412
---
linear:
  x: 0.29999999999999993
  y: 0.0
  z: 0.0
angular:
  x: 0.0
  y: 0.0
  z: 0.5897435897435899
---
linear:
  x: 0.29999999999999993
  y: 0.0
  z: 0.0
angular:
  x: 0.0
  y: 0.0
  z: 0.5384615384615385
---
linear:
  x: 0.29999999999999993
  y: 0.0
  z: 0.0
angular:
  x: 0.0
  y: 0.0
  z: 0.5384615384615385
---
linear:
  x: 0.29999999999999993
  y: 0.0
  z: 0.0
angular:
  x: 0.0
  y: 0.0
  z: 0.38461538461538475
---
linear:
  x: 0.29999999999999993
  y: 0.0
  z: 0.0
angular:
  x: 0.0
  y: 0.0
  z: 0.435897435897436
---
linear:
  x: 0.29999999999999993
  y: 0.0
  z: 0.0
angular:
  x: 0.0
  y: 0.0
  z: 0.3333333333333335
---
linear:
  x: 0.29999999999999993
  y: 0.0
  z: 0.0
angular:
  x: 0.0
  y: 0.0
  z: 0.38461538461538475
---
linear:
  x: 0.29999999999999993
  y: 0.0
  z: 0.0
angular:
  x: 0.0
  y: 0.0
  z: 0.17948717948717968
---
linear:
  x: 0.2842105263157894
  y: 0.0
  z: 0.0
angular:
  x: 0.0
  y: 0.0
  z: 0.17948717948717968
---
linear:
  x: 0.29999999999999993
  y: 0.0
  z: 0.0
angular:
  x: 0.0
  y: 0.0
  z: 0.02564102564102587
---
linear:
  x: 0.2842105263157894
  y: 0.0
  z: 0.0
angular:
  x: 0.0
  y: 0.0
  z: 0.02564102564102587
---
linear:
  x: 0.29999999999999993
  y: 0.0
  z: 0.0
angular:
  x: 0.0
  y: 0.0
  z: 0.0
---
linear:
  x: 0.2842105263157894
  y: 0.0
  z: 0.0
angular:
  x: 0.0
  y: 0.0
  z: 0.0
---
linear:
  x: 0.29999999999999993
  y: 0.0
  z: 0.0
angular:
  x: 0.0
  y: 0.0
  z: 0.02564102564102587
---
linear:
  x: 0.2842105263157894
  y: 0.0
  z: 0.0
angular:
  x: 0.0
  y: 0.0
  z: 0.02564102564102587
---
linear:
  x: 0.2684210526315789
  y: 0.0
  z: 0.0
angular:
  x: 0.0
  y: 0.0
  z: 0.02564102564102587
---
linear:
  x: 0.29999999999999993
  y: 0.0
  z: 0.0
angular:
  x: 0.0
  y: 0.0
  z: -0.02564102564102541
---
linear:
  x: 0.2684210526315789
  y: 0.0
  z: 0.0
angular:
  x: 0.0
  y: 0.0
  z: -0.02564102564102541
---
linear:
  x: 0.2526315789473684
  y: 0.0
  z: 0.0
angular:
  x: 0.0
  y: 0.0
  z: 0.0
---
linear:
  x: 0.2526315789473684
  y: 0.0
  z: 0.0
angular:
  x: 0.0
  y: 0.0
  z: -0.07692307692307669
---
linear:
  x: 0.23684210526315783
  y: 0.0
  z: 0.0
angular:
  x: 0.0
  y: 0.0
  z: -0.02564102564102541
---
linear:
  x: 0.2210526315789473
  y: 0.0
  z: 0.0
angular:
  x: 0.0
  y: 0.0
  z: -0.07692307692307669
---
linear:
  x: 0.2052631578947368
  y: 0.0
  z: 0.0
angular:
  x: 0.0
  y: 0.0
  z: -0.07692307692307669
---
linear:
  x: 0.2052631578947368
  y: 0.0
  z: 0.0
angular:
  x: 0.0
  y: 0.0
  z: -0.02564102564102541
---
linear:
  x: 0.18947368421052627
  y: 0.0
  z: 0.0
angular:
  x: 0.0
  y: 0.0
  z: -0.02564102564102541
---
linear:
  x: 0.17368421052631575
  y: 0.0
  z: 0.0
angular:
  x: 0.0
  y: 0.0
  z: -0.02564102564102541
---
linear:
  x: 0.15789473684210523
  y: 0.0
  z: 0.0
angular:
  x: 0.0
  y: 0.0
  z: -0.02564102564102541
---
linear:
  x: 0.15789473684210523
  y: 0.0
  z: 0.0
angular:
  x: 0.0
  y: 0.0
  z: -0.02564102564102541
---
linear:
  x: 0.1421052631578947
  y: 0.0
  z: 0.0
angular:
  x: 0.0
  y: 0.0
  z: 0.07692307692307715
---
linear:
  x: 0.1421052631578947
  y: 0.0
  z: 0.0
angular:
  x: 0.0
  y: 0.0
  z: -0.07692307692307669
---
linear:
  x: 0.1421052631578947
  y: 0.0
  z: 0.0
angular:
  x: 0.0
  y: 0.0
  z: -0.02564102564102541
---
linear:
  x: 0.1263157894736842
  y: 0.0
  z: 0.0
angular:
  x: 0.0
  y: 0.0
  z: -0.02564102564102541
---
linear:
  x: 0.1263157894736842
  y: 0.0
  z: 0.0
angular:
  x: 0.0
  y: 0.0
  z: -0.02564102564102541
---
linear:
  x: 0.11052631578947367
  y: 0.0
  z: 0.0
angular:
  x: 0.0
  y: 0.0
  z: -0.02564102564102541
---
linear:
  x: 0.11052631578947367
  y: 0.0
  z: 0.0
angular:
  x: 0.0
  y: 0.0
  z: -0.02564102564102541
---
linear:
  x: 0.09473684210526315
  y: 0.0
  z: 0.0
angular:
  x: 0.0
  y: 0.0
  z: -0.07692307692307669
---
linear:
  x: 0.09473684210526315
  y: 0.0
  z: 0.0
angular:
  x: 0.0
  y: 0.0
  z: -0.02564102564102541
---
linear:
  x: 0.09473684210526315
  y: 0.0
  z: 0.0
angular:
  x: 0.0
  y: 0.0
  z: -0.02564102564102541
---
linear:
  x: 0.07894736842105263
  y: 0.0
  z: 0.0
angular:
  x: 0.0
  y: 0.0
  z: -0.02564102564102541
---
linear:
  x: 0.07894736842105263
  y: 0.0
  z: 0.0
angular:
  x: 0.0
  y: 0.0
  z: -0.02564102564102541
---
linear:
  x: 0.07894736842105263
  y: 0.0
  z: 0.0
angular:
  x: 0.0
  y: 0.0
  z: -0.02564102564102541
---
linear:
  x: 0.07894736842105263
  y: 0.0
  z: 0.0
angular:
  x: 0.0
  y: 0.0
  z: -0.02564102564102541
---
linear:
  x: 0.06315789473684211
  y: 0.0
  z: 0.0
angular:
  x: 0.0
  y: 0.0
  z: -0.02564102564102541
---
linear:
  x: 0.06315789473684211
  y: 0.0
  z: 0.0
angular:
  x: 0.0
  y: 0.0
  z: -0.02564102564102541
---
linear:
  x: 0.06315789473684211
  y: 0.0
  z: 0.0
angular:
  x: 0.0
  y: 0.0
  z: -0.02564102564102541
---
linear:
  x: 0.06315789473684211
  y: 0.0
  z: 0.0
angular:
  x: 0.0
  y: 0.0
  z: -0.02564102564102541
---
linear:
  x: 0.04736842105263158
  y: 0.0
  z: 0.0
angular:
  x: 0.0
  y: 0.0
  z: 0.02564102564102587
---
linear:
  x: 0.04736842105263158
  y: 0.0
  z: 0.0
angular:
  x: 0.0
  y: 0.0
  z: -0.02564102564102541
---
linear:
  x: 0.04736842105263158
  y: 0.0
  z: 0.0
angular:
  x: 0.0
  y: 0.0
  z: -0.02564102564102541
---
linear:
  x: 0.04736842105263158
  y: 0.0
  z: 0.0
angular:
  x: 0.0
  y: 0.0
  z: -0.02564102564102541
---
linear:
  x: 0.04736842105263158
  y: 0.0
  z: 0.0
angular:
  x: 0.0
  y: 0.0
  z: -0.28205128205128177
---
linear:
  x: 0.04736842105263158
  y: 0.0
  z: 0.0
angular:
  x: 0.0
  y: 0.0
  z: -0.5384615384615381
---
linear:
  x: 0.04736842105263158
  y: 0.0
  z: 0.0
angular:
  x: 0.0
  y: 0.0
  z: -0.43589743589743557
---
linear:
  x: 0.04736842105263158
  y: 0.0
  z: 0.0
angular:
  x: 0.0
  y: 0.0
  z: -0.3846153846153843
---
linear:
  x: 0.031578947368421054
  y: 0.0
  z: 0.0
angular:
  x: 0.0
  y: 0.0
  z: -0.43589743589743557
---
linear:
  x: 0.031578947368421054
  y: 0.0
  z: 0.0
angular:
  x: 0.0
  y: 0.0
  z: -0.43589743589743557
---
linear:
  x: 0.031578947368421054
  y: 0.0
  z: 0.0
angular:
  x: 0.0
  y: 0.0
  z: -0.43589743589743557
---
linear:
  x: 0.0
  y: 0.0
  z: 0.0
angular:
  x: 0.0
  y: 0.0
  z: -0.7435897435897434
---
linear:
  x: 0.0
  y: 0.0
  z: 0.0
angular:
  x: 0.0
  y: 0.0
  z: -0.6923076923076921
---
linear:
  x: 0.0
  y: 0.0
  z: 0.0
angular:
  x: 0.0
  y: 0.0
  z: -0.6410256410256407
---
linear:
  x: 0.0
  y: 0.0
  z: 0.0
angular:
  x: 0.0
  y: 0.0
  z: -0.5897435897435894
---
linear:
  x: 0.0
  y: 0.0
  z: 0.0
angular:
  x: 0.0
  y: 0.0
  z: -0.5897435897435894
---
linear:
  x: 0.0
  y: 0.0
  z: 0.0
angular:
  x: 0.0
  y: 0.0
  z: -0.5384615384615381
---
linear:
  x: 0.0
  y: 0.0
  z: 0.0
angular:
  x: 0.0
  y: 0.0
  z: -0.5384615384615381
---
linear:
  x: 0.0
  y: 0.0
  z: 0.0
angular:
  x: 0.0
  y: 0.0
  z: -0.48717948717948684
---
linear:
  x: 0.0
  y: 0.0
  z: 0.0
angular:
  x: 0.0
  y: 0.0
  z: -0.48717948717948684
---
linear:
  x: 0.0
  y: 0.0
  z: 0.0
angular:
  x: 0.0
  y: 0.0
  z: -0.43589743589743557
---
linear:
  x: 0.0
  y: 0.0
  z: 0.0
angular:
  x: 0.0
  y: 0.0
  z: -0.3846153846153843
---
linear:
  x: 0.0
  y: 0.0
  z: 0.0
angular:
  x: 0.0
  y: 0.0
  z: -0.3846153846153843
---
linear:
  x: 0.0
  y: 0.0
  z: 0.0
angular:
  x: 0.0
  y: 0.0
  z: -0.3846153846153843
---
linear:
  x: 0.0
  y: 0.0
  z: 0.0
angular:
  x: 0.0
  y: 0.0
  z: -0.33333333333333304
---
linear:
  x: 0.0
  y: 0.0
  z: 0.0
angular:
  x: 0.0
  y: 0.0
  z: -0.33333333333333304
---
linear:
  x: 0.0
  y: 0.0
  z: 0.0
angular:
  x: 0.0
  y: 0.0
  z: -0.28205128205128177
---
linear:
  x: 0.0
  y: 0.0
  z: 0.0
angular:
  x: 0.0
  y: 0.0
  z: -0.28205128205128177
---
linear:
  x: 0.0
  y: 0.0
  z: 0.0
angular:
  x: 0.0
  y: 0.0
  z: -0.28205128205128177
---
linear:
  x: 0.0
  y: 0.0
  z: 0.0
angular:
  x: 0.0
  y: 0.0
  z: -0.28205128205128177
---
linear:
  x: 0.0
  y: 0.0
  z: 0.0
angular:
  x: 0.0
  y: 0.0
  z: -0.2307692307692305
---
linear:
  x: 0.0
  y: 0.0
  z: 0.0
angular:
  x: 0.0
  y: 0.0
  z: -0.2307692307692305
---
linear:
  x: 0.0
  y: 0.0
  z: 0.0
angular:
  x: 0.0
  y: 0.0
  z: -0.2307692307692305
---
linear:
  x: 0.0
  y: 0.0
  z: 0.0
angular:
  x: 0.0
  y: 0.0
  z: -0.2307692307692305
---
linear:
  x: 0.0
  y: 0.0
  z: 0.0
angular:
  x: 0.0
  y: 0.0
  z: -0.17948717948717924
---
linear:
  x: 0.0
  y: 0.0
  z: 0.0
angular:
  x: 0.0
  y: 0.0
  z: -0.17948717948717924
---
linear:
  x: 0.0
  y: 0.0
  z: 0.0
angular:
  x: 0.0
  y: 0.0
  z: -0.17948717948717924
---
linear:
  x: 0.0
  y: 0.0
  z: 0.0
angular:
  x: 0.0
  y: 0.0
  z: -0.17948717948717924
---
linear:
  x: 0.0
  y: 0.0
  z: 0.0
angular:
  x: 0.0
  y: 0.0
  z: 0.0
---
linear:
  x: 0.29999999999999993
  y: 0.0
  z: 0.0
angular:
  x: 0.0
  y: 0.0
  z: -0.33333333333333304
---
linear:
  x: 0.29999999999999993
  y: 0.0
  z: 0.0
angular:
  x: 0.0
  y: 0.0
  z: -0.28205128205128177
---
linear:
  x: 0.29999999999999993
  y: 0.0
  z: 0.0
angular:
  x: 0.0
  y: 0.0
  z: -0.28205128205128177
---
linear:
  x: 0.2842105263157894
  y: 0.0
  z: 0.0
angular:
  x: 0.0
  y: 0.0
  z: -0.2307692307692305
---
linear:
  x: 0.29999999999999993
  y: 0.0
  z: 0.0
angular:
  x: 0.0
  y: 0.0
  z: -0.2307692307692305
---
linear:
  x: 0.2842105263157894
  y: 0.0
  z: 0.0
angular:
  x: 0.0
  y: 0.0
  z: -0.2307692307692305
---
linear:
  x: 0.29999999999999993
  y: 0.0
  z: 0.0
angular:
  x: 0.0
  y: 0.0
  z: -0.33333333333333304
---
linear:
  x: 0.29999999999999993
  y: 0.0
  z: 0.0
angular:
  x: 0.0
  y: 0.0
  z: -0.48717948717948684
---
linear:
  x: 0.29999999999999993
  y: 0.0
  z: 0.0
angular:
  x: 0.0
  y: 0.0
  z: -0.3846153846153843
---
linear:
  x: 0.29999999999999993
  y: 0.0
  z: 0.0
angular:
  x: 0.0
  y: 0.0
  z: -0.43589743589743557
---
linear:
  x: 0.29999999999999993
  y: 0.0
  z: 0.0
angular:
  x: 0.0
  y: 0.0
  z: -0.33333333333333304
---
linear:
  x: 0.29999999999999993
  y: 0.0
  z: 0.0
angular:
  x: 0.0
  y: 0.0
  z: -0.48717948717948684
---
linear:
  x: 0.29999999999999993
  y: 0.0
  z: 0.0
angular:
  x: 0.0
  y: 0.0
  z: -0.43589743589743557
---
linear:
  x: 0.29999999999999993
  y: 0.0
  z: 0.0
angular:
  x: 0.0
  y: 0.0
  z: -0.3846153846153843
---
linear:
  x: 0.29999999999999993
  y: 0.0
  z: 0.0
angular:
  x: 0.0
  y: 0.0
  z: -0.48717948717948684
---
linear:
  x: 0.29999999999999993
  y: 0.0
  z: 0.0
angular:
  x: 0.0
  y: 0.0
  z: -0.5897435897435894
---
linear:
  x: 0.2842105263157894
  y: 0.0
  z: 0.0
angular:
  x: 0.0
  y: 0.0
  z: -0.5384615384615381
---
linear:
  x: 0.29999999999999993
  y: 0.0
  z: 0.0
angular:
  x: 0.0
  y: 0.0
  z: -0.6923076923076921
---
linear:
  x: 0.29999999999999993
  y: 0.0
  z: 0.0
angular:
  x: 0.0
  y: 0.0
  z: -0.6923076923076921
---
linear:
  x: 0.29999999999999993
  y: 0.0
  z: 0.0
angular:
  x: 0.0
  y: 0.0
  z: -0.7435897435897434
---
linear:
  x: 0.29999999999999993
  y: 0.0
  z: 0.0
angular:
  x: 0.0
  y: 0.0
  z: -0.7435897435897434
---
linear:
  x: 0.29999999999999993
  y: 0.0
  z: 0.0
angular:
  x: 0.0
  y: 0.0
  z: -0.7435897435897434
---
linear:
  x: 0.29999999999999993
  y: 0.0
  z: 0.0
angular:
  x: 0.0
  y: 0.0
  z: -0.7435897435897434
---
linear:
  x: 0.2842105263157894
  y: 0.0
  z: 0.0
angular:
  x: 0.0
  y: 0.0
  z: -0.6923076923076921
---
linear:
  x: 0.29999999999999993
  y: 0.0
  z: 0.0
angular:
  x: 0.0
  y: 0.0
  z: -0.6923076923076921
---
linear:
  x: 0.2842105263157894
  y: 0.0
  z: 0.0
angular:
  x: 0.0
  y: 0.0
  z: -0.6410256410256407
---
linear:
  x: 0.29999999999999993
  y: 0.0
  z: 0.0
angular:
  x: 0.0
  y: 0.0
  z: -0.6410256410256407
---
linear:
  x: 0.2842105263157894
  y: 0.0
  z: 0.0
angular:
  x: 0.0
  y: 0.0
  z: -0.5897435897435894
---
linear:
  x: 0.29999999999999993
  y: 0.0
  z: 0.0
angular:
  x: 0.0
  y: 0.0
  z: -0.48717948717948684
---
linear:
  x: 0.2842105263157894
  y: 0.0
  z: 0.0
angular:
  x: 0.0
  y: 0.0
  z: -0.48717948717948684
---
linear:
  x: 0.29999999999999993
  y: 0.0
  z: 0.0
angular:
  x: 0.0
  y: 0.0
  z: -0.48717948717948684
---
linear:
  x: 0.2842105263157894
  y: 0.0
  z: 0.0
angular:
  x: 0.0
  y: 0.0
  z: -0.43589743589743557
---
linear:
  x: 0.29999999999999993
  y: 0.0
  z: 0.0
angular:
  x: 0.0
  y: 0.0
  z: -0.43589743589743557
---
linear:
  x: 0.2842105263157894
  y: 0.0
  z: 0.0
angular:
  x: 0.0
  y: 0.0
  z: -0.43589743589743557
---
linear:
  x: 0.2684210526315789
  y: 0.0
  z: 0.0
angular:
  x: 0.0
  y: 0.0
  z: -0.3846153846153843
---
linear:
  x: 0.29999999999999993
  y: 0.0
  z: 0.0
angular:
  x: 0.0
  y: 0.0
  z: -0.28205128205128177
---
linear:
  x: 0.2842105263157894
  y: 0.0
  z: 0.0
angular:
  x: 0.0
  y: 0.0
  z: -0.28205128205128177
---
linear:
  x: 0.29999999999999993
  y: 0.0
  z: 0.0
angular:
  x: 0.0
  y: 0.0
  z: -0.28205128205128177
---
linear:
  x: 0.2842105263157894
  y: 0.0
  z: 0.0
angular:
  x: 0.0
  y: 0.0
  z: -0.28205128205128177
---
linear:
  x: 0.29999999999999993
  y: 0.0
  z: 0.0
angular:
  x: 0.0
  y: 0.0
  z: -0.28205128205128177
---
linear:
  x: 0.2842105263157894
  y: 0.0
  z: 0.0
angular:
  x: 0.0
  y: 0.0
  z: -0.2307692307692305
---
linear:
  x: 0.2684210526315789
  y: 0.0
  z: 0.0
angular:
  x: 0.0
  y: 0.0
  z: -0.2307692307692305
---
linear:
  x: 0.2526315789473684
  y: 0.0
  z: 0.0
angular:
  x: 0.0
  y: 0.0
  z: -0.2307692307692305
---
linear:
  x: 0.23684210526315783
  y: 0.0
  z: 0.0
angular:
  x: 0.0
  y: 0.0
  z: -0.2307692307692305
---
linear:
  x: 0.2210526315789473
  y: 0.0
  z: 0.0
angular:
  x: 0.0
  y: 0.0
  z: -0.17948717948717924
---
linear:
  x: 0.2052631578947368
  y: 0.0
  z: 0.0
angular:
  x: 0.0
  y: 0.0
  z: -0.17948717948717924
---
linear:
  x: 0.2052631578947368
  y: 0.0
  z: 0.0
angular:
  x: 0.0
  y: 0.0
  z: -0.17948717948717924
---
linear:
  x: 0.18947368421052627
  y: 0.0
  z: 0.0
angular:
  x: 0.0
  y: 0.0
  z: -0.17948717948717924
---
linear:
  x: 0.17368421052631575
  y: 0.0
  z: 0.0
angular:
  x: 0.0
  y: 0.0
  z: -0.17948717948717924
---
linear:
  x: 0.17368421052631575
  y: 0.0
  z: 0.0
angular:
  x: 0.0
  y: 0.0
  z: -0.17948717948717924
---
linear:
  x: 0.15789473684210523
  y: 0.0
  z: 0.0
angular:
  x: 0.0
  y: 0.0
  z: -0.12820512820512797
---
linear:
  x: 0.1421052631578947
  y: 0.0
  z: 0.0
angular:
  x: 0.0
  y: 0.0
  z: 0.0
---
linear:
  x: 0.1421052631578947
  y: 0.0
  z: 0.0
angular:
  x: 0.0
  y: 0.0
  z: -0.12820512820512797
---
linear:
  x: 0.1263157894736842
  y: 0.0
  z: 0.0
angular:
  x: 0.0
  y: 0.0
  z: -0.02564102564102541
---
linear:
  x: 0.1263157894736842
  y: 0.0
  z: 0.0
angular:
  x: 0.0
  y: 0.0
  z: -0.12820512820512797
---
linear:
  x: 0.11052631578947367
  y: 0.0
  z: 0.0
angular:
  x: 0.0
  y: 0.0
  z: -0.12820512820512797
---
linear:
  x: 0.11052631578947367
  y: 0.0
  z: 0.0
angular:
  x: 0.0
  y: 0.0
  z: -0.12820512820512797
---
linear:
  x: 0.11052631578947367
  y: 0.0
  z: 0.0
angular:
  x: 0.0
  y: 0.0
  z: -0.12820512820512797
---
linear:
  x: 0.09473684210526315
  y: 0.0
  z: 0.0
angular:
  x: 0.0
  y: 0.0
  z: -0.12820512820512797
---
linear:
  x: 0.09473684210526315
  y: 0.0
  z: 0.0
angular:
  x: 0.0
  y: 0.0
  z: -0.12820512820512797
---
linear:
  x: 0.09473684210526315
  y: 0.0
  z: 0.0
angular:
  x: 0.0
  y: 0.0
  z: -0.07692307692307669
---
linear:
  x: 0.07894736842105263
  y: 0.0
  z: 0.0
angular:
  x: 0.0
  y: 0.0
  z: -0.07692307692307669
---
linear:
  x: 0.07894736842105263
  y: 0.0
  z: 0.0
angular:
  x: 0.0
  y: 0.0
  z: -0.07692307692307669
---
linear:
  x: 0.07894736842105263
  y: 0.0
  z: 0.0
angular:
  x: 0.0
  y: 0.0
  z: -0.07692307692307669
---
linear:
  x: 0.06315789473684211
  y: 0.0
  z: 0.0
angular:
  x: 0.0
  y: 0.0
  z: 0.0
---
linear:
  x: 0.06315789473684211
  y: 0.0
  z: 0.0
angular:
  x: 0.0
  y: 0.0
  z: -0.07692307692307669
---
linear:
  x: 0.06315789473684211
  y: 0.0
  z: 0.0
angular:
  x: 0.0
  y: 0.0
  z: -0.07692307692307669
---
linear:
  x: 0.06315789473684211
  y: 0.0
  z: 0.0
angular:
  x: 0.0
  y: 0.0
  z: -0.07692307692307669
---
linear:
  x: 0.06315789473684211
  y: 0.0
  z: 0.0
angular:
  x: 0.0
  y: 0.0
  z: 0.17948717948717968
---
linear:
  x: 0.06315789473684211
  y: 0.0
  z: 0.0
angular:
  x: 0.0
  y: 0.0
  z: 0.17948717948717968
---
linear:
  x: 0.04736842105263158
  y: 0.0
  z: 0.0
angular:
  x: 0.0
  y: 0.0
  z: 0.17948717948717968
---
linear:
  x: 0.04736842105263158
  y: 0.0
  z: 0.0
angular:
  x: 0.0
  y: 0.0
  z: 0.12820512820512842
---
linear:
  x: 0.04736842105263158
  y: 0.0
  z: 0.0
angular:
  x: 0.0
  y: 0.0
  z: 0.12820512820512842
---
linear:
  x: 0.04736842105263158
  y: 0.0
  z: 0.0
angular:
  x: 0.0
  y: 0.0
  z: 0.12820512820512842
---
linear:
  x: 0.04736842105263158
  y: 0.0
  z: 0.0
angular:
  x: 0.0
  y: 0.0
  z: 0.12820512820512842
---
linear:
  x: 0.04736842105263158
  y: 0.0
  z: 0.0
angular:
  x: 0.0
  y: 0.0
  z: 0.07692307692307715
---
linear:
  x: 0.031578947368421054
  y: 0.0
  z: 0.0
angular:
  x: 0.0
  y: 0.0
  z: 0.12820512820512842
---
linear:
  x: 0.031578947368421054
  y: 0.0
  z: 0.0
angular:
  x: 0.0
  y: 0.0
  z: 0.07692307692307715
---
linear:
  x: 0.031578947368421054
  y: 0.0
  z: 0.0
angular:
  x: 0.0
  y: 0.0
  z: 0.07692307692307715
---
linear:
  x: 0.031578947368421054
  y: 0.0
  z: 0.0
angular:
  x: 0.0
  y: 0.0
  z: 0.07692307692307715
---
linear:
  x: 0.031578947368421054
  y: 0.0
  z: 0.0
angular:
  x: 0.0
  y: 0.0
  z: 0.07692307692307715
---
linear:
  x: 0.0
  y: 0.0
  z: 0.0
angular:
  x: 0.0
  y: 0.0
  z: 0.9487179487179491
---
linear:
  x: 0.0
  y: 0.0
  z: 0.0
angular:
  x: 0.0
  y: 0.0
  z: 0.7948717948717952
---
linear:
  x: 0.0
  y: 0.0
  z: 0.0
angular:
  x: 0.0
  y: 0.0
  z: 0.7948717948717952
---
linear:
  x: 0.0
  y: 0.0
  z: 0.0
angular:
  x: 0.0
  y: 0.0
  z: 0.7435897435897438
---
linear:
  x: 0.0
  y: 0.0
  z: 0.0
angular:
  x: 0.0
  y: 0.0
  z: 0.6923076923076925
---
linear:
  x: 0.0
  y: 0.0
  z: 0.0
angular:
  x: 0.0
  y: 0.0
  z: 0.6410256410256412
---
linear:
  x: 0.0
  y: 0.0
  z: 0.0
angular:
  x: 0.0
  y: 0.0
  z: 0.5897435897435899
---
linear:
  x: 0.0
  y: 0.0
  z: 0.0
angular:
  x: 0.0
  y: 0.0
  z: 0.5897435897435899
---
linear:
  x: 0.0
  y: 0.0
  z: 0.0
angular:
  x: 0.0
  y: 0.0
  z: 0.5384615384615385
---
linear:
  x: 0.0
  y: 0.0
  z: 0.0
angular:
  x: 0.0
  y: 0.0
  z: 0.5384615384615385
---
linear:
  x: 0.0
  y: 0.0
  z: 0.0
angular:
  x: 0.0
  y: 0.0
  z: 0.4871794871794873
---
linear:
  x: 0.0
  y: 0.0
  z: 0.0
angular:
  x: 0.0
  y: 0.0
  z: 0.4871794871794873
---
linear:
  x: 0.0
  y: 0.0
  z: 0.0
angular:
  x: 0.0
  y: 0.0
  z: 0.435897435897436
---
linear:
  x: 0.0
  y: 0.0
  z: 0.0
angular:
  x: 0.0
  y: 0.0
  z: 0.435897435897436
---
linear:
  x: 0.0
  y: 0.0
  z: 0.0
angular:
  x: 0.0
  y: 0.0
  z: 0.38461538461538475
---
linear:
  x: 0.0
  y: 0.0
  z: 0.0
angular:
  x: 0.0
  y: 0.0
  z: 0.38461538461538475
---
linear:
  x: 0.0
  y: 0.0
  z: 0.0
angular:
  x: 0.0
  y: 0.0
  z: 0.3333333333333335
---
linear:
  x: 0.0
  y: 0.0
  z: 0.0
angular:
  x: 0.0
  y: 0.0
  z: 0.3333333333333335
---
linear:
  x: 0.0
  y: 0.0
  z: 0.0
angular:
  x: 0.0
  y: 0.0
  z: 0.3333333333333335
---
linear:
  x: 0.0
  y: 0.0
  z: 0.0
angular:
  x: 0.0
  y: 0.0
  z: 0.2820512820512822
---
linear:
  x: 0.0
  y: 0.0
  z: 0.0
angular:
  x: 0.0
  y: 0.0
  z: 0.2820512820512822
---
linear:
  x: 0.0
  y: 0.0
  z: 0.0
angular:
  x: 0.0
  y: 0.0
  z: 0.2820512820512822
---
linear:
  x: 0.0
  y: 0.0
  z: 0.0
angular:
  x: 0.0
  y: 0.0
  z: 0.23076923076923095
---
linear:
  x: 0.0
  y: 0.0
  z: 0.0
angular:
  x: 0.0
  y: 0.0
  z: 0.23076923076923095
---
linear:
  x: 0.0
  y: 0.0
  z: 0.0
angular:
  x: 0.0
  y: 0.0
  z: 0.23076923076923095
---
linear:
  x: 0.0
  y: 0.0
  z: 0.0
angular:
  x: 0.0
  y: 0.0
  z: 0.17948717948717968
---
linear:
  x: 0.0
  y: 0.0
  z: 0.0
angular:
  x: 0.0
  y: 0.0
  z: 0.17948717948717968
---
linear:
  x: 0.0
  y: 0.0
  z: 0.0
angular:
  x: 0.0
  y: 0.0
  z: 0.17948717948717968
---
linear:
  x: 0.0
  y: 0.0
  z: 0.0
angular:
  x: 0.0
  y: 0.0
  z: 0.17948717948717968
---
linear:
  x: 0.0
  y: 0.0
  z: 0.0
angular:
  x: 0.0
  y: 0.0
  z: 0.17948717948717968
---
linear:
  x: 0.0
  y: 0.0
  z: 0.0
angular:
  x: 0.0
  y: 0.0
  z: 0.0
---
linear:
  x: 0.29999999999999993
  y: 0.0
  z: 0.0
angular:
  x: 0.0
  y: 0.0
  z: 0.17948717948717968
---
linear:
  x: 0.29999999999999993
  y: 0.0
  z: 0.0
angular:
  x: 0.0
  y: 0.0
  z: 0.17948717948717968
---
linear:
  x: 0.29999999999999993
  y: 0.0
  z: 0.0
angular:
  x: 0.0
  y: 0.0
  z: 0.17948717948717968
---
linear:
  x: 0.2842105263157894
  y: 0.0
  z: 0.0
angular:
  x: 0.0
  y: 0.0
  z: 0.12820512820512842
---
linear:
  x: 0.29999999999999993
  y: 0.0
  z: 0.0
angular:
  x: 0.0
  y: 0.0
  z: 0.12820512820512842
---
linear:
  x: 0.2842105263157894
  y: 0.0
  z: 0.0
angular:
  x: 0.0
  y: 0.0
  z: 0.12820512820512842
---
linear:
  x: 0.29999999999999993
  y: 0.0
  z: 0.0
angular:
  x: 0.0
  y: 0.0
  z: 0.2820512820512822
---
linear:
  x: 0.2842105263157894
  y: 0.0
  z: 0.0
angular:
  x: 0.0
  y: 0.0
  z: 0.2820512820512822
---
linear:
  x: 0.29999999999999993
  y: 0.0
  z: 0.0
angular:
  x: 0.0
  y: 0.0
  z: 0.23076923076923095
---
linear:
  x: 0.2842105263157894
  y: 0.0
  z: 0.0
angular:
  x: 0.0
  y: 0.0
  z: 0.23076923076923095
---
linear:
  x: 0.29999999999999993
  y: 0.0
  z: 0.0
angular:
  x: 0.0
  y: 0.0
  z: 0.23076923076923095
---
linear:
  x: 0.2842105263157894
  y: 0.0
  z: 0.0
angular:
  x: 0.0
  y: 0.0
  z: 0.2820512820512822
---
linear:
  x: 0.29999999999999993
  y: 0.0
  z: 0.0
angular:
  x: 0.0
  y: 0.0
  z: 0.2820512820512822
---
linear:
  x: 0.29999999999999993
  y: 0.0
  z: 0.0
angular:
  x: 0.0
  y: 0.0
  z: 0.5897435897435899
---
linear:
  x: 0.29999999999999993
  y: 0.0
  z: 0.0
angular:
  x: 0.0
  y: 0.0
  z: 0.5897435897435899
---
linear:
  x: 0.29999999999999993
  y: 0.0
  z: 0.0
angular:
  x: 0.0
  y: 0.0
  z: 0.6410256410256412
---
linear:
  x: 0.29999999999999993
  y: 0.0
  z: 0.0
angular:
  x: 0.0
  y: 0.0
  z: 0.6923076923076925
---
linear:
  x: 0.29999999999999993
  y: 0.0
  z: 0.0
angular:
  x: 0.0
  y: 0.0
  z: 0.5897435897435899
---
linear:
  x: 0.29999999999999993
  y: 0.0
  z: 0.0
angular:
  x: 0.0
  y: 0.0
  z: 0.6410256410256412
---
linear:
  x: 0.29999999999999993
  y: 0.0
  z: 0.0
angular:
  x: 0.0
  y: 0.0
  z: 0.6410256410256412
---
linear:
  x: 0.29999999999999993
  y: 0.0
  z: 0.0
angular:
  x: 0.0
  y: 0.0
  z: 0.6923076923076925
---
linear:
  x: 0.29999999999999993
  y: 0.0
  z: 0.0
angular:
  x: 0.0
  y: 0.0
  z: 0.5897435897435899
---
linear:
  x: 0.29999999999999993
  y: 0.0
  z: 0.0
angular:
  x: 0.0
  y: 0.0
  z: 0.5897435897435899
---
linear:
  x: 0.29999999999999993
  y: 0.0
  z: 0.0
angular:
  x: 0.0
  y: 0.0
  z: 0.6410256410256412
---
linear:
  x: 0.2842105263157894
  y: 0.0
  z: 0.0
angular:
  x: 0.0
  y: 0.0
  z: 0.5897435897435899
---
linear:
  x: 0.29999999999999993
  y: 0.0
  z: 0.0
angular:
  x: 0.0
  y: 0.0
  z: 0.6410256410256412
---
linear:
  x: 0.2842105263157894
  y: 0.0
  z: 0.0
angular:
  x: 0.0
  y: 0.0
  z: 0.5897435897435899
---
linear:
  x: 0.29999999999999993
  y: 0.0
  z: 0.0
angular:
  x: 0.0
  y: 0.0
  z: 0.5897435897435899
---
linear:
  x: 0.2842105263157894
  y: 0.0
  z: 0.0
angular:
  x: 0.0
  y: 0.0
  z: 0.5897435897435899
---
linear:
  x: 0.29999999999999993
  y: 0.0
  z: 0.0
angular:
  x: 0.0
  y: 0.0
  z: 0.6923076923076925
---
linear:
  x: 0.2842105263157894
  y: 0.0
  z: 0.0
angular:
  x: 0.0
  y: 0.0
  z: 0.6410256410256412
---
linear:
  x: 0.29999999999999993
  y: 0.0
  z: 0.0
angular:
  x: 0.0
  y: 0.0
  z: 0.5384615384615385
---
linear:
  x: 0.2842105263157894
  y: 0.0
  z: 0.0
angular:
  x: 0.0
  y: 0.0
  z: 0.5384615384615385
---
linear:
  x: 0.29999999999999993
  y: 0.0
  z: 0.0
angular:
  x: 0.0
  y: 0.0
  z: 0.5384615384615385
---
linear:
  x: 0.2842105263157894
  y: 0.0
  z: 0.0
angular:
  x: 0.0
  y: 0.0
  z: 0.4871794871794873
---
linear:
  x: 0.2684210526315789
  y: 0.0
  z: 0.0
angular:
  x: 0.0
  y: 0.0
  z: 0.4871794871794873
---
linear:
  x: 0.29999999999999993
  y: 0.0
  z: 0.0
angular:
  x: 0.0
  y: 0.0
  z: 0.5897435897435899
---
linear:
  x: 0.2842105263157894
  y: 0.0
  z: 0.0
angular:
  x: 0.0
  y: 0.0
  z: 0.5384615384615385
---
linear:
  x: 0.29999999999999993
  y: 0.0
  z: 0.0
angular:
  x: 0.0
  y: 0.0
  z: 0.5384615384615385
---
linear:
  x: 0.2842105263157894
  y: 0.0
  z: 0.0
angular:
  x: 0.0
  y: 0.0
  z: 0.4871794871794873
---
linear:
  x: 0.29999999999999993
  y: 0.0
  z: 0.0
angular:
  x: 0.0
  y: 0.0
  z: 0.4871794871794873
---
linear:
  x: 0.2842105263157894
  y: 0.0
  z: 0.0
angular:
  x: 0.0
  y: 0.0
  z: 0.435897435897436
---
linear:
  x: 0.29999999999999993
  y: 0.0
  z: 0.0
angular:
  x: 0.0
  y: 0.0
  z: 0.38461538461538475
---
linear:
  x: 0.2842105263157894
  y: 0.0
  z: 0.0
angular:
  x: 0.0
  y: 0.0
  z: 0.38461538461538475
---
linear:
  x: 0.29999999999999993
  y: 0.0
  z: 0.0
angular:
  x: 0.0
  y: 0.0
  z: 0.2820512820512822
---
linear:
  x: 0.2842105263157894
  y: 0.0
  z: 0.0
angular:
  x: 0.0
  y: 0.0
  z: 0.2820512820512822
---
linear:
  x: 0.29999999999999993
  y: 0.0
  z: 0.0
angular:
  x: 0.0
  y: 0.0
  z: 0.2820512820512822
---
linear:
  x: 0.2842105263157894
  y: 0.0
  z: 0.0
angular:
  x: 0.0
  y: 0.0
  z: 0.23076923076923095
---
linear:
  x: 0.29999999999999993
  y: 0.0
  z: 0.0
angular:
  x: 0.0
  y: 0.0
  z: 0.23076923076923095
---
linear:
  x: 0.2842105263157894
  y: 0.0
  z: 0.0
angular:
  x: 0.0
  y: 0.0
  z: 0.17948717948717968
---
linear:
  x: 0.29999999999999993
  y: 0.0
  z: 0.0
angular:
  x: 0.0
  y: 0.0
  z: 0.17948717948717968
---
linear:
  x: 0.2842105263157894
  y: 0.0
  z: 0.0
angular:
  x: 0.0
  y: 0.0
  z: 0.17948717948717968
---
linear:
  x: 0.29999999999999993
  y: 0.0
  z: 0.0
angular:
  x: 0.0
  y: 0.0
  z: 0.17948717948717968
---
linear:
  x: 0.2842105263157894
  y: 0.0
  z: 0.0
angular:
  x: 0.0
  y: 0.0
  z: 0.12820512820512842
---
linear:
  x: 0.29999999999999993
  y: 0.0
  z: 0.0
angular:
  x: 0.0
  y: 0.0
  z: 0.12820512820512842
---
linear:
  x: 0.2842105263157894
  y: 0.0
  z: 0.0
angular:
  x: 0.0
  y: 0.0
  z: 0.12820512820512842
---
linear:
  x: 0.2684210526315789
  y: 0.0
  z: 0.0
angular:
  x: 0.0
  y: 0.0
  z: 0.12820512820512842
---
linear:
  x: 0.2526315789473684
  y: 0.0
  z: 0.0
angular:
  x: 0.0
  y: 0.0
  z: 0.12820512820512842
---
linear:
  x: 0.23684210526315783
  y: 0.0
  z: 0.0
angular:
  x: 0.0
  y: 0.0
  z: 0.07692307692307715
---
linear:
  x: 0.2210526315789473
  y: 0.0
  z: 0.0
angular:
  x: 0.0
  y: 0.0
  z: 0.12820512820512842
---
linear:
  x: 0.2210526315789473
  y: 0.0
  z: 0.0
angular:
  x: 0.0
  y: 0.0
  z: 0.07692307692307715
---
linear:
  x: 0.2052631578947368
  y: 0.0
  z: 0.0
angular:
  x: 0.0
  y: 0.0
  z: 0.07692307692307715
---
linear:
  x: 0.18947368421052627
  y: 0.0
  z: 0.0
angular:
  x: 0.0
  y: 0.0
  z: 0.07692307692307715
---
linear:
  x: 0.17368421052631575
  y: 0.0
  z: 0.0
angular:
  x: 0.0
  y: 0.0
  z: 0.12820512820512842
---
linear:
  x: 0.17368421052631575
  y: 0.0
  z: 0.0
angular:
  x: 0.0
  y: 0.0
  z: 0.02564102564102587
---
linear:
  x: 0.15789473684210523
  y: 0.0
  z: 0.0
angular:
  x: 0.0
  y: 0.0
  z: 0.02564102564102587
---
linear:
  x: 0.0
  y: 0.0
  z: 0.0
angular:
  x: 0.0
  y: 0.0
  z: 0.0
---
linear:
  x: 0.2842105263157894
  y: 0.0
  z: 0.0
angular:
  x: 0.0
  y: 0.0
  z: 0.3333333333333335
---
linear:
  x: 0.2842105263157894
  y: 0.0
  z: 0.0
angular:
  x: 0.0
  y: 0.0
  z: 0.3333333333333335
---
linear:
  x: 0.2684210526315789
  y: 0.0
  z: 0.0
angular:
  x: 0.0
  y: 0.0
  z: 0.2820512820512822
---
linear:
  x: 0.29999999999999993
  y: 0.0
  z: 0.0
angular:
  x: 0.0
  y: 0.0
  z: 0.38461538461538475
---
linear:
  x: 0.29999999999999993
  y: 0.0
  z: 0.0
angular:
  x: 0.0
  y: 0.0
  z: 0.3333333333333335
---
linear:
  x: 0.29999999999999993
  y: 0.0
  z: 0.0
angular:
  x: 0.0
  y: 0.0
  z: 0.2820512820512822
---
linear:
  x: 0.2842105263157894
  y: 0.0
  z: 0.0
angular:
  x: 0.0
  y: 0.0
  z: 0.23076923076923095
---
linear:
  x: 0.29999999999999993
  y: 0.0
  z: 0.0
angular:
  x: 0.0
  y: 0.0
  z: 0.17948717948717968
---
linear:
  x: 0.2842105263157894
  y: 0.0
  z: 0.0
angular:
  x: 0.0
  y: 0.0
  z: 0.17948717948717968
---
linear:
  x: 0.2842105263157894
  y: 0.0
  z: 0.0
angular:
  x: 0.0
  y: 0.0
  z: 0.2820512820512822
---
linear:
  x: 0.29999999999999993
  y: 0.0
  z: 0.0
angular:
  x: 0.0
  y: 0.0
  z: 0.23076923076923095
---
linear:
  x: 0.2842105263157894
  y: 0.0
  z: 0.0
angular:
  x: 0.0
  y: 0.0
  z: 0.17948717948717968
---
linear:
  x: 0.29999999999999993
  y: 0.0
  z: 0.0
angular:
  x: 0.0
  y: 0.0
  z: 0.12820512820512842
