transforms:
- header:
    stamp:
      sec: 284
      nanosec: 20000000
    frame_id: odom
  child_frame_id: base_footprint
  transform:
    translation:
      x: 9.600784785877476e-09
      y: -2.214038751710824e-21
      z: 0.0
    rotation:
      x: 0.0
      y: 0.0
      z: -2.3025029435427374e-13
      w: 1.0
---
transforms:
- header:
    stamp:
      sec: 284
      nanosec: 40000000
    frame_id: odom
  child_frame_id: base_footprint
  transform:
    translation:
      x: 9.60078478587739e-09
      y: -2.2140387517107833e-21
      z: 0.0
    rotation:
      x: 0.0
      y: 0.0
      z: -2.3025029295323657e-13
      w: 1.0
---
transforms:
- header:
    stamp:
      sec: 284
      nanosec: 200000000
    frame_id: map
  child_frame_id: odom
  transform:
    translation:
      x: -9.600834535682958e-09
      y: 1.1241340220766634e-17
      z: -0.0
    rotation:
      x: -0.0
      y: -0.0
      z: 2.652150232496946e-13
      w: 1.0
---
transforms:
- header:
    stamp:
      sec: 284
      nanosec: 50000000
    frame_id: base_link
  child_frame_id: wheel_left_link
  transform:
    translation:
      x: 0.0
      y: 0.08
      z: 0.023
    rotation:
      x: -0.7068251811053586
      y: 1.0281973461369582e-07
      z: 1.0290164534159514e-07
      w: 0.7073882691671922
- header:
    stamp:
      sec: 284
      nanosec: 50000000
    frame_id: base_link
  child_frame_id: wheel_right_link
  transform:
    translation:
      x: 0.0
      y: -0.08
      z: 0.023
    rotation:
      x: -0.7068251811053586
      y: 1.0281894553877014e-07
      z: 1.0290085563805763e-07
      w: 0.7073882691671922
---
transforms:
- header:
    stamp:
      sec: 284
      nanosec: 60000000
    frame_id: odom
  child_frame_id: base_footprint
  transform:
    translation:
      x: 9.600784785877384e-09
      y: -2.2140387517107803e-21
      z: 0.0
    rotation:
      x: 0.0
      y: 0.0
      z: -2.3025028804702156e-13
      w: 1.0
---
transforms:
- header:
    stamp:
      sec: 284
      nanosec: 80000000
    frame_id: odom
  child_frame_id: base_footprint
  transform:
    translation:
      x: 9.60078478587705e-09
      y: -2.2140387517106295e-21
      z: 0.0
    rotation:
      x: 0.0
      y: 0.0
      z: -2.3025028694583737e-13
      w: 1.0
---
transforms:
- header:
    stamp:
      sec: 284
      nanosec: 200000000
    frame_id: map
  child_frame_id: odom
  transform:
    translation:
      x: -9.600834535682958e-09
      y: 1.1241340220766634e-17
      z: -0.0
    rotation:
      x: -0.0
      y: -0.0
      z: 2.652150232496946e-13
      w: 1.0
---
transforms:
- header:
    stamp:
      sec: 284
      nanosec: 100000000
    frame_id: odom
  child_frame_id: base_footprint
  transform:
    translation:
      x: 9.600784785876618e-09
      y: -2.214038751710429e-21
      z: 0.0
    rotation:
      x: 0.0
      y: 0.0
      z: -2.30250286578776e-13
      w: 1.0
---
transforms:
- header:
    stamp:
      sec: 284
      nanosec: 100000000
    frame_id: base_link
  child_frame_id: wheel_left_link
  transform:
    translation:
      x: 0.0
      y: 0.08
      z: 0.023
    rotation:
      x: -0.7068251811053586
      y: 1.0281973461367724e-07
      z: 1.0290164534157654e-07
      w: 0.7073882691671922
- header:
    stamp:
      sec: 284
      nanosec: 100000000
    frame_id: base_link
  child_frame_id: wheel_right_link
  transform:
    translation:
      x: 0.0
      y: -0.08
      z: 0.023
    rotation:
      x: -0.7068251811053586
      y: 1.028189455387657e-07
      z: 1.0290085563805317e-07
      w: 0.7073882691671922
---
transforms:
- header:
    stamp:
      sec: 284
      nanosec: 120000000
    frame_id: odom
  child_frame_id: base_footprint
  transform:
    translation:
      x: 9.600784785876796e-09
      y: -2.2140387517105106e-21
      z: 0.0
    rotation:
      x: 0.0
      y: 0.0
      z: -2.302502852501171e-13
      w: 1.0
---
transforms:
- header:
    stamp:
      sec: 284
      nanosec: 300000000
    frame_id: map
  child_frame_id: odom
  transform:
    translation:
      x: -9.600834535682958e-09
      y: 1.1241340220766634e-17
      z: -0.0
    rotation:
      x: -0.0
      y: -0.0
      z: 2.652150232496946e-13
      w: 1.0
---
transforms:
- header:
    stamp:
      sec: 284
      nanosec: 140000000
    frame_id: odom
  child_frame_id: base_footprint
  transform:
    translation:
      x: 9.600784785877178e-09
      y: -2.2140387517106874e-21
      z: 0.0
    rotation:
      x: 0.0
      y: 0.0
      z: -2.302502829805403e-13
      w: 1.0
---
transforms:
- header:
    stamp:
      sec: 284
      nanosec: 150000000
    frame_id: base_link
  child_frame_id: wheel_left_link
  transform:
    translation:
      x: 0.0
      y: 0.08
      z: 0.023
    rotation:
      x: -0.7068251811053586
      y: 1.0281973461367511e-07
      z: 1.0290164534157441e-07
      w: 0.7073882691671922
- header:
    stamp:
      sec: 284
      nanosec: 150000000
    frame_id: base_link
  child_frame_id: wheel_right_link
  transform:
    translation:
      x: 0.0
      y: -0.08
      z: 0.023
    rotation:
      x: -0.7068251811053586
      y: 1.0281894553877914e-07
      z: 1.0290085563806663e-07
      w: 0.7073882691671922
---
transforms:
- header:
    stamp:
      sec: 284
      nanosec: 160000000
    frame_id: odom
  child_frame_id: base_footprint
  transform:
    translation:
      x: 9.600784785877266e-09
      y: -2.2140387517107277e-21
      z: 0.0
    rotation:
      x: 0.0
      y: 0.0
      z: -2.3025028386975947e-13
      w: 1.0
---
transforms:
- header:
    stamp:
      sec: 284
      nanosec: 300000000
    frame_id: map
  child_frame_id: odom
  transform:
    translation:
      x: -9.600834535682958e-09
      y: 1.1241340220766634e-17
      z: -0.0
    rotation:
      x: -0.0
      y: -0.0
      z: 2.652150232496946e-13
      w: 1.0
---
transforms:
- header:
    stamp:
      sec: 284
      nanosec: 180000000
    frame_id: odom
  child_frame_id: base_footprint
  transform:
    translation:
      x: 9.600784785877696e-09
      y: -2.214038751710927e-21
      z: 0.0
    rotation:
      x: 0.0
      y: 0.0
      z: -2.302502873335783e-13
      w: 1.0
---
transforms:
- header:
    stamp:
      sec: 284
      nanosec: 200000000
    frame_id: base_link
  child_frame_id: wheel_left_link
  transform:
    translation:
      x: 0.0
      y: 0.08
      z: 0.023
    rotation:
      x: -0.7068251811053586
      y: 1.0281973461370334e-07
      z: 1.0290164534160267e-07
      w: 0.7073882691671922
- header:
    stamp:
      sec: 284
      nanosec: 200000000
    frame_id: base_link
  child_frame_id: wheel_right_link
  transform:
    translation:
      x: 0.0
      y: -0.08
      z: 0.023
    rotation:
      x: -0.7068251811053586
      y: 1.0281894553877593e-07
      z: 1.0290085563806341e-07
      w: 0.7073882691671922
---
transforms:
- header:
    stamp:
      sec: 284
      nanosec: 200000000
    frame_id: odom
  child_frame_id: base_footprint
  transform:
    translation:
      x: 9.600784785878318e-09
      y: -2.2140387517112118e-21
      z: 0.0
    rotation:
      x: 0.0
      y: 0.0
      z: -2.3025029120581753e-13
      w: 1.0
---
transforms:
- header:
    stamp:
      sec: 284
      nanosec: 300000000
    frame_id: map
  child_frame_id: odom
  transform:
    translation:
      x: -9.600834535682958e-09
      y: 1.1241340220766634e-17
      z: -0.0
    rotation:
      x: -0.0
      y: -0.0
      z: 2.652150232496946e-13
      w: 1.0
---
transforms:
- header:
    stamp:
      sec: 284
      nanosec: 220000000
    frame_id: odom
  child_frame_id: base_footprint
  transform:
    translation:
      x: 9.600784785878308e-09
      y: -2.214038751711206e-21
      z: 0.0
    rotation:
      x: 0.0
      y: 0.0
      z: -2.302502936563401e-13
      w: 1.0
---
transforms:
- header:
    stamp:
      sec: 284
      nanosec: 240000000
    frame_id: odom
  child_frame_id: base_footprint
  transform:
    translation:
      x: 9.600784785878375e-09
      y: -2.2140387517112377e-21
      z: 0.0
    rotation:
      x: 0.0
      y: 0.0
      z: -2.3025029655147224e-13
      w: 1.0
---
transforms:
- header:
    stamp:
      sec: 284
      nanosec: 400000000
    frame_id: map
  child_frame_id: odom
  transform:
    translation:
      x: -9.600834535682958e-09
      y: 1.1241340220766634e-17
      z: -0.0
    rotation:
      x: -0.0
      y: -0.0
      z: 2.652150232496946e-13
      w: 1.0
---
transforms:
- header:
    stamp:
      sec: 284
      nanosec: 250000000
    frame_id: base_link
  child_frame_id: wheel_left_link
  transform:
    translation:
      x: 0.0
      y: 0.08
      z: 0.023
    rotation:
      x: -0.7068251811053586
      y: 1.0281973461371257e-07
      z: 1.029016453416119e-07
      w: 0.7073882691671922
- header:
    stamp:
      sec: 284
      nanosec: 250000000
    frame_id: base_link
  child_frame_id: wheel_right_link
  transform:
    translation:
      x: 0.0
      y: -0.08
      z: 0.023
    rotation:
      x: -0.7068251811053586
      y: 1.0281894553876502e-07
      z: 1.0290085563805248e-07
      w: 0.7073882691671922
---
transforms:
- header:
    stamp:
      sec: 284
      nanosec: 260000000
    frame_id: odom
  child_frame_id: base_footprint
  transform:
    translation:
      x: 9.600784785878375e-09
      y: -2.2140387517112362e-21
      z: 0.0
    rotation:
      x: 0.0
      y: 0.0
      z: -2.3025030016521754e-13
      w: 1.0
---
transforms:
- header:
    stamp:
      sec: 284
      nanosec: 280000000
    frame_id: odom
  child_frame_id: base_footprint
  transform:
    translation:
      x: 9.600784785878998e-09
      y: -2.214038751711523e-21
      z: 0.0
    rotation:
      x: 0.0
      y: 0.0
      z: -2.3025029792149013e-13
      w: 1.0
---
transforms:
- header:
    stamp:
      sec: 284
      nanosec: 400000000
    frame_id: map
  child_frame_id: odom
  transform:
    translation:
      x: -9.600834535682958e-09
      y: 1.1241340220766634e-17
      z: -0.0
    rotation:
      x: -0.0
      y: -0.0
      z: 2.652150232496946e-13
      w: 1.0
---
transforms:
- header:
    stamp:
      sec: 284
      nanosec: 300000000
    frame_id: base_link
  child_frame_id: wheel_left_link
  transform:
    translation:
      x: 0.0
      y: 0.08
      z: 0.023
    rotation:
      x: -0.7068251811053586
      y: 1.0281973461372947e-07
      z: 1.0290164534162881e-07
      w: 0.7073882691671922
- header:
    stamp:
      sec: 284
      nanosec: 300000000
    frame_id: base_link
  child_frame_id: wheel_right_link
  transform:
    translation:
      x: 0.0
      y: -0.08
      z: 0.023
    rotation:
      x: -0.7068251811053586
      y: 1.0281894553877438e-07
      z: 1.0290085563806185e-07
      w: 0.7073882691671922
---
transforms:
- header:
    stamp:
      sec: 284
      nanosec: 300000000
    frame_id: odom
  child_frame_id: base_footprint
  transform:
    translation:
      x: 9.600784785879466e-09
      y: -2.214038751711738e-21
      z: 0.0
    rotation:
      x: 0.0
      y: 0.0
      z: -2.3025029928116826e-13
      w: 1.0
---
transforms:
- header:
    stamp:
      sec: 284
      nanosec: 320000000
    frame_id: odom
  child_frame_id: base_footprint
  transform:
    translation:
      x: 9.600784785879392e-09
      y: -2.214038751711705e-21
      z: 0.0
    rotation:
      x: 0.0
      y: 0.0
      z: -2.302502975078998e-13
      w: 1.0
---
transforms:
- header:
    stamp:
      sec: 284
      nanosec: 500000000
    frame_id: map
  child_frame_id: odom
  transform:
    translation:
      x: -9.600834535682958e-09
      y: 1.1241340220766634e-17
      z: -0.0
    rotation:
      x: -0.0
      y: -0.0
      z: 2.652150232496946e-13
      w: 1.0
---
transforms:
- header:
    stamp:
      sec: 284
      nanosec: 340000000
    frame_id: odom
  child_frame_id: base_footprint
  transform:
    translation:
      x: 9.600784785879748e-09
      y: -2.2140387517118678e-21
      z: 0.0
    rotation:
      x: 0.0
      y: 0.0
      z: -2.302502977870733e-13
      w: 1.0
---
transforms:
- header:
    stamp:
      sec: 284
      nanosec: 350000000
    frame_id: base_link
  child_frame_id: wheel_left_link
  transform:
    translation:
      x: 0.0
      y: 0.08
      z: 0.023
    rotation:
      x: -0.7068251811053586
      y: 1.0281973461372896e-07
      z: 1.0290164534162829e-07
      w: 0.7073882691671922
- header:
    stamp:
      sec: 284
      nanosec: 350000000
    frame_id: base_link
  child_frame_id: wheel_right_link
  transform:
    translation:
      x: 0.0
      y: -0.08
      z: 0.023
    rotation:
      x: -0.7068251811053586
      y: 1.028189455387813e-07
      z: 1.0290085563806877e-07
      w: 0.7073882691671922
---
transforms:
- header:
    stamp:
      sec: 284
      nanosec: 360000000
    frame_id: odom
  child_frame_id: base_footprint
  transform:
    translation:
      x: 9.600784785879413e-09
      y: -2.2140387517117154e-21
      z: 0.0
    rotation:
      x: 0.0
      y: 0.0
      z: -2.3025029976713687e-13
      w: 1.0
---
transforms:
- header:
    stamp:
      sec: 284
      nanosec: 500000000
    frame_id: map
  child_frame_id: odom
  transform:
    translation:
      x: -9.600834535682958e-09
      y: 1.1241340220766634e-17
      z: -0.0
    rotation:
      x: -0.0
      y: -0.0
      z: 2.652150232496946e-13
      w: 1.0
---
transforms:
- header:
    stamp:
      sec: 284
      nanosec: 380000000
    frame_id: odom
  child_frame_id: base_footprint
  transform:
    translation:
      x: 9.60078478587975e-09
      y: -2.2140387517118693e-21
      z: 0.0
    rotation:
      x: 0.0
      y: 0.0
      z: -2.302502978749612e-13
      w: 1.0
---
transforms:
- header:
    stamp:
      sec: 284
      nanosec: 400000000
    frame_id: odom
  child_frame_id: base_footprint
  transform:
    translation:
      x: 9.600784785879764e-09
      y: -2.2140387517118764e-21
      z: 0.0
    rotation:
      x: 0.0
      y: 0.0
      z: -2.302502992966779e-13
      w: 1.0
---
transforms:
- header:
    stamp:
      sec: 284
      nanosec: 400000000
    frame_id: base_link
  child_frame_id: wheel_left_link
  transform:
    translation:
      x: 0.0
      y: 0.08
      z: 0.023
    rotation:
      x: -0.7068251811053586
      y: 1.0281973461373272e-07
      z: 1.0290164534163206e-07
      w: 0.7073882691671922
- header:
    stamp:
      sec: 284
      nanosec: 400000000
    frame_id: base_link
  child_frame_id: wheel_right_link
  transform:
    translation:
      x: 0.0
      y: -0.08
      z: 0.023
    rotation:
      x: -0.7068251811053586
      y: 1.0281894553877758e-07
      z: 1.0290085563806505e-07
      w: 0.7073882691671922
---
transforms:
- header:
    stamp:
      sec: 284
      nanosec: 600000000
    frame_id: map
  child_frame_id: odom
  transform:
    translation:
      x: -9.600834535682958e-09
      y: 1.1241340220766634e-17
      z: -0.0
    rotation:
      x: -0.0
      y: -0.0
      z: 2.652150232496946e-13
      w: 1.0
---
transforms:
- header:
    stamp:
      sec: 284
      nanosec: 420000000
    frame_id: odom
  child_frame_id: base_footprint
  transform:
    translation:
      x: 9.60078478587978e-09
      y: -2.2140387517118825e-21
      z: 0.0
    rotation:
      x: 0.0
      y: 0.0
      z: -2.302503005115994e-13
      w: 1.0
---
transforms:
- header:
    stamp:
      sec: 284
      nanosec: 440000000
    frame_id: odom
  child_frame_id: base_footprint
  transform:
    translation:
      x: 9.600784785879503e-09
      y: -2.2140387517117542e-21
      z: 0.0
    rotation:
      x: 0.0
      y: 0.0
      z: -2.3025030106477645e-13
      w: 1.0
---
transforms:
- header:
    stamp:
      sec: 284
      nanosec: 450000000
    frame_id: base_link
  child_frame_id: wheel_left_link
  transform:
    translation:
      x: 0.0
      y: 0.08
      z: 0.023
    rotation:
      x: -0.7068251811053586
      y: 1.0281973461374045e-07
      z: 1.0290164534163981e-07
      w: 0.7073882691671922
- header:
    stamp:
      sec: 284
      nanosec: 450000000
    frame_id: base_link
  child_frame_id: wheel_right_link
  transform:
    translation:
      x: 0.0
      y: -0.08
      z: 0.023
    rotation:
      x: -0.7068251811053586
      y: 1.028189455387686e-07
      z: 1.0290085563805607e-07
      w: 0.7073882691671922
---
transforms:
- header:
    stamp:
      sec: 284
      nanosec: 600000000
    frame_id: map
  child_frame_id: odom
  transform:
    translation:
      x: -9.600834535682958e-09
      y: 1.1241340220766634e-17
      z: -0.0
    rotation:
      x: -0.0
      y: -0.0
      z: 2.652150232496946e-13
      w: 1.0
---
transforms:
- header:
    stamp:
      sec: 284
      nanosec: 460000000
    frame_id: odom
  child_frame_id: base_footprint
  transform:
    translation:
      x: 9.600784785879867e-09
      y: -2.2140387517119212e-21
      z: 0.0
    rotation:
      x: 0.0
      y: 0.0
      z: -2.302502998808742e-13
      w: 1.0
---
transforms:
- header:
    stamp:
      sec: 284
      nanosec: 480000000
    frame_id: odom
  child_frame_id: base_footprint
  transform:
    translation:
      x: 9.600784785879609e-09
      y: -2.2140387517118027e-21
      z: 0.0
    rotation:
      x: 0.0
      y: 0.0
      z: -2.302502998291754e-13
      w: 1.0
---
transforms:
- header:
    stamp:
      sec: 284
      nanosec: 600000000
    frame_id: map
  child_frame_id: odom
  transform:
    translation:
      x: -9.600834535682958e-09
      y: 1.1241340220766634e-17
      z: -0.0
    rotation:
      x: -0.0
      y: -0.0
      z: 2.652150232496946e-13
      w: 1.0
---
transforms:
- header:
    stamp:
      sec: 284
      nanosec: 500000000
    frame_id: odom
  child_frame_id: base_footprint
  transform:
    translation:
      x: 9.6007847858794e-09
      y: -2.2140387517117068e-21
      z: 0.0
    rotation:
      x: 0.0
      y: 0.0
      z: -2.3025029801454795e-13
      w: 1.0
---
transforms:
- header:
    stamp:
      sec: 284
      nanosec: 500000000
    frame_id: base_link
  child_frame_id: wheel_left_link
  transform:
    translation:
      x: 0.0
      y: 0.08
      z: 0.023
    rotation:
      x: -0.7068251811053586
      y: 1.0281973461372657e-07
      z: 1.029016453416259e-07
      w: 0.7073882691671922
- header:
    stamp:
      sec: 284
      nanosec: 500000000
    frame_id: base_link
  child_frame_id: wheel_right_link
  transform:
    translation:
      x: 0.0
      y: -0.08
      z: 0.023
    rotation:
      x: -0.7068251811053586
      y: 1.0281894553877582e-07
      z: 1.029008556380633e-07
      w: 0.7073882691671922
---
transforms:
- header:
    stamp:
      sec: 284
      nanosec: 520000000
    frame_id: odom
  child_frame_id: base_footprint
  transform:
    translation:
      x: 9.600784785879056e-09
      y: -2.2140387517115488e-21
      z: 0.0
    rotation:
      x: 0.0
      y: 0.0
      z: -2.302502963395072e-13
      w: 1.0
---
transforms:
- header:
    stamp:
      sec: 284
      nanosec: 700000000
    frame_id: map
  child_frame_id: odom
  transform:
    translation:
      x: -9.600834535682958e-09
      y: 1.1241340220766634e-17
      z: -0.0
    rotation:
      x: -0.0
      y: -0.0
      z: 2.652150232496946e-13
      w: 1.0
---
transforms:
- header:
    stamp:
      sec: 284
      nanosec: 540000000
    frame_id: odom
  child_frame_id: base_footprint
  transform:
    translation:
      x: 9.600784785878649e-09
      y: -2.2140387517113637e-21
      z: 0.0
    rotation:
      x: 0.0
      y: 0.0
      z: -2.3025029894512613e-13
      w: 1.0
---
transforms:
- header:
    stamp:
      sec: 284
      nanosec: 550000000
    frame_id: base_link
  child_frame_id: wheel_left_link
  transform:
    translation:
      x: 0.0
      y: 0.08
      z: 0.023
    rotation:
      x: -0.7068251811053586
      y: 1.0281973461372118e-07
      z: 1.0290164534162051e-07
      w: 0.7073882691671922
- header:
    stamp:
      sec: 284
      nanosec: 550000000
    frame_id: base_link
  child_frame_id: wheel_right_link
  transform:
    translation:
      x: 0.0
      y: -0.08
      z: 0.023
    rotation:
      x: -0.7068251811053586
      y: 1.0281894553876932e-07
      z: 1.0290085563805681e-07
      w: 0.7073882691671922
---
transforms:
- header:
    stamp:
      sec: 284
      nanosec: 560000000
    frame_id: odom
  child_frame_id: base_footprint
  transform:
    translation:
      x: 9.600784785879076e-09
      y: -2.2140387517115586e-21
      z: 0.0
    rotation:
      x: 0.0
      y: 0.0
      z: -2.302503011733439e-13
      w: 1.0
---
transforms:
- header:
    stamp:
      sec: 284
      nanosec: 700000000
    frame_id: map
  child_frame_id: odom
  transform:
    translation:
      x: -9.600834535682958e-09
      y: 1.1241340220766634e-17
      z: -0.0
    rotation:
      x: -0.0
      y: -0.0
      z: 2.652150232496946e-13
      w: 1.0
---
transforms:
- header:
    stamp:
      sec: 284
      nanosec: 580000000
    frame_id: odom
  child_frame_id: base_footprint
  transform:
    translation:
      x: 9.600784785879063e-09
      y: -2.214038751711552e-21
      z: 0.0
    rotation:
      x: 0.0
      y: 0.0
      z: -2.302503032464653e-13
      w: 1.0
---
transforms:
- header:
    stamp:
      sec: 284
      nanosec: 600000000
    frame_id: odom
  child_frame_id: base_footprint
  transform:
    translation:
      x: 9.600784785879162e-09
      y: -2.214038751711599e-21
      z: 0.0
    rotation:
      x: 0.0
      y: 0.0
      z: -2.3025030295178223e-13
      w: 1.0
---
transforms:
- header:
    stamp:
      sec: 284
      nanosec: 600000000
    frame_id: base_link
  child_frame_id: wheel_left_link
  transform:
    translation:
      x: 0.0
      y: 0.08
      z: 0.023
    rotation:
      x: -0.7068251811053586
      y: 1.0281973461373251e-07
      z: 1.0290164534163185e-07
      w: 0.7073882691671922
- header:
    stamp:
      sec: 284
      nanosec: 600000000
    frame_id: base_link
  child_frame_id: wheel_right_link
  transform:
    translation:
      x: 0.0
      y: -0.08
      z: 0.023
    rotation:
      x: -0.7068251811053586
      y: 1.0281894553876484e-07
      z: 1.029008556380523e-07
      w: 0.7073882691671922
---
transforms:
- header:
    stamp:
      sec: 284
      nanosec: 800000000
    frame_id: map
  child_frame_id: odom
  transform:
    translation:
      x: -9.600834535682958e-09
      y: 1.1241340220766634e-17
      z: -0.0
    rotation:
      x: -0.0
      y: -0.0
      z: 2.652150232496946e-13
      w: 1.0
---
transforms:
- header:
    stamp:
      sec: 284
      nanosec: 620000000
    frame_id: odom
  child_frame_id: base_footprint
  transform:
    translation:
      x: 9.600784785879466e-09
      y: -2.2140387517117388e-21
      z: 0.0
    rotation:
      x: 0.0
      y: 0.0
      z: -2.302503021246016e-13
      w: 1.0
---
transforms:
- header:
    stamp:
      sec: 284
      nanosec: 640000000
    frame_id: odom
  child_frame_id: base_footprint
  transform:
    translation:
      x: 9.600784785879384e-09
      y: -2.2140387517117008e-21
      z: 0.0
    rotation:
      x: 0.0
      y: 0.0
      z: -2.3025029920878996e-13
      w: 1.0
---
transforms:
- header:
    stamp:
      sec: 284
      nanosec: 650000000
    frame_id: base_link
  child_frame_id: wheel_left_link
  transform:
    translation:
      x: 0.0
      y: 0.08
      z: 0.023
    rotation:
      x: -0.7068251811053586
      y: 1.0281973461372449e-07
      z: 1.0290164534162383e-07
      w: 0.7073882691671922
- header:
    stamp:
      sec: 284
      nanosec: 650000000
    frame_id: base_link
  child_frame_id: wheel_right_link
  transform:
    translation:
      x: 0.0
      y: -0.08
      z: 0.023
    rotation:
      x: -0.7068251811053586
      y: 1.0281894553876776e-07
      z: 1.0290085563805523e-07
      w: 0.7073882691671922
---
transforms:
- header:
    stamp:
      sec: 284
      nanosec: 800000000
    frame_id: map
  child_frame_id: odom
  transform:
    translation:
      x: -9.600834535682958e-09
      y: 1.1241340220766634e-17
      z: -0.0
    rotation:
      x: -0.0
      y: -0.0
      z: 2.652150232496946e-13
      w: 1.0
---
transforms:
- header:
    stamp:
      sec: 284
      nanosec: 660000000
    frame_id: odom
  child_frame_id: base_footprint
  transform:
    translation:
      x: 9.600784785878937e-09
      y: -2.2140387517114946e-21
      z: 0.0
    rotation:
      x: 0.0
      y: 0.0
      z: -2.3025030348427975e-13
      w: 1.0
---
transforms:
- header:
    stamp:
      sec: 284
      nanosec: 680000000
    frame_id: odom
  child_frame_id: base_footprint
  transform:
    translation:
      x: 9.600784785879599e-09
      y: -2.2140387517117997e-21
      z: 0.0
    rotation:
      x: 0.0
      y: 0.0
      z: -2.302503009510391e-13
      w: 1.0
---
transforms:
- header:
    stamp:
      sec: 284
      nanosec: 800000000
    frame_id: map
  child_frame_id: odom
  transform:
    translation:
      x: -9.600834535682958e-09
      y: 1.1241340220766634e-17
      z: -0.0
    rotation:
      x: -0.0
      y: -0.0
      z: 2.652150232496946e-13
      w: 1.0
---
transforms:
- header:
    stamp:
      sec: 284
      nanosec: 700000000
    frame_id: base_link
  child_frame_id: wheel_left_link
  transform:
    translation:
      x: 0.0
      y: 0.08
      z: 0.023
    rotation:
      x: -0.7068251811053586
      y: 1.0281973461372138e-07
      z: 1.0290164534162072e-07
      w: 0.7073882691671922
- header:
    stamp:
      sec: 284
      nanosec: 700000000
    frame_id: base_link
  child_frame_id: wheel_right_link
  transform:
    translation:
      x: 0.0
      y: -0.08
      z: 0.023
    rotation:
      x: -0.7068251811053586
      y: 1.0281894553876882e-07
      z: 1.0290085563805629e-07
      w: 0.7073882691671922
---
transforms:
- header:
    stamp:
      sec: 284
      nanosec: 700000000
    frame_id: odom
  child_frame_id: base_footprint
  transform:
    translation:
      x: 9.600784785878833e-09
      y: -2.2140387517114457e-21
      z: 0.0
    rotation:
      x: 0.0
      y: 0.0
      z: -2.302502985418756e-13
      w: 1.0
---
transforms:
- header:
    stamp:
      sec: 284
      nanosec: 720000000
    frame_id: odom
  child_frame_id: base_footprint
  transform:
    translation:
      x: 9.600784785879126e-09
      y: -2.2140387517115823e-21
      z: 0.0
    rotation:
      x: 0.0
      y: 0.0
      z: -2.302503033963918e-13
      w: 1.0
---
transforms:
- header:
    stamp:
      sec: 284
      nanosec: 900000000
    frame_id: map
  child_frame_id: odom
  transform:
    translation:
      x: -9.600834535682958e-09
      y: 1.1241340220766634e-17
      z: -0.0
    rotation:
      x: -0.0
      y: -0.0
      z: 2.652150232496946e-13
      w: 1.0
---
transforms:
- header:
    stamp:
      sec: 284
      nanosec: 740000000
    frame_id: odom
  child_frame_id: base_footprint
  transform:
    translation:
      x: 9.60078478587891e-09
      y: -2.2140387517114834e-21
      z: 0.0
    rotation:
      x: 0.0
      y: 0.0
      z: -2.302503007545837e-13
      w: 1.0
---
transforms:
- header:
    stamp:
      sec: 284
      nanosec: 750000000
    frame_id: base_link
  child_frame_id: wheel_left_link
  transform:
    translation:
      x: 0.0
      y: 0.08
      z: 0.023
    rotation:
      x: -0.7068251811053586
      y: 1.0281973461372565e-07
      z: 1.0290164534162498e-07
      w: 0.7073882691671922
- header:
    stamp:
      sec: 284
      nanosec: 750000000
    frame_id: base_link
  child_frame_id: wheel_right_link
  transform:
    translation:
      x: 0.0
      y: -0.08
      z: 0.023
    rotation:
      x: -0.7068251811053586
      y: 1.0281894553876632e-07
      z: 1.0290085563805379e-07
      w: 0.7073882691671922
---
transforms:
- header:
    stamp:
      sec: 284
      nanosec: 760000000
    frame_id: odom
  child_frame_id: base_footprint
  transform:
    translation:
      x: 9.600784785878785e-09
      y: -2.2140387517114258e-21
      z: 0.0
    rotation:
      x: 0.0
      y: 0.0
      z: -2.3025029996359226e-13
      w: 1.0
---
transforms:
- header:
    stamp:
      sec: 284
      nanosec: 780000000
    frame_id: odom
  child_frame_id: base_footprint
  transform:
    translation:
      x: 9.600784785878863e-09
      y: -2.2140387517114615e-21
      z: 0.0
    rotation:
      x: 0.0
      y: 0.0
      z: -2.302503007080548e-13
      w: 1.0
---
transforms:
- header:
    stamp:
      sec: 284
      nanosec: 900000000
    frame_id: map
  child_frame_id: odom
  transform:
    translation:
      x: -9.600834535682958e-09
      y: 1.1241340220766634e-17
      z: -0.0
    rotation:
      x: -0.0
      y: -0.0
      z: 2.652150232496946e-13
      w: 1.0
---
transforms:
- header:
    stamp:
      sec: 284
      nanosec: 800000000
    frame_id: base_link
  child_frame_id: wheel_left_link
  transform:
    translation:
      x: 0.0
      y: 0.08
      z: 0.023
    rotation:
      x: -0.7068251811053586
      y: 1.0281973461373295e-07
      z: 1.0290164534163229e-07
      w: 0.7073882691671922
- header:
    stamp:
      sec: 284
      nanosec: 800000000
    frame_id: base_link
  child_frame_id: wheel_right_link
  transform:
    translation:
      x: 0.0
      y: -0.08
      z: 0.023
    rotation:
      x: -0.7068251811053586
      y: 1.0281894553876597e-07
      z: 1.0290085563805345e-07
      w: 0.7073882691671922
---
transforms:
- header:
    stamp:
      sec: 284
      nanosec: 800000000
    frame_id: odom
  child_frame_id: base_footprint
  transform:
    translation:
      x: 9.600784785879236e-09
      y: -2.214038751711632e-21
      z: 0.0
    rotation:
      x: 0.0
      y: 0.0
      z: -2.3025030275015695e-13
      w: 1.0
---
transforms:
- header:
    stamp:
      sec: 284
      nanosec: 820000000
    frame_id: odom
  child_frame_id: base_footprint
  transform:
    translation:
      x: 9.600784785879579e-09
      y: -2.2140387517117888e-21
      z: 0.0
    rotation:
      x: 0.0
      y: 0.0
      z: -2.302503023934353e-13
      w: 1.0
---
transforms:
- header:
    stamp:
      sec: 285
      nanosec: 0
    frame_id: map
  child_frame_id: odom
  transform:
    translation:
      x: -9.600834535682958e-09
      y: 1.1241340220766634e-17
      z: -0.0
    rotation:
      x: -0.0
      y: -0.0
      z: 2.652150232496946e-13
      w: 1.0
---
transforms:
- header:
    stamp:
      sec: 284
      nanosec: 840000000
    frame_id: odom
  child_frame_id: base_footprint
  transform:
    translation:
      x: 9.600784785879225e-09
      y: -2.2140387517116274e-21
      z: 0.0
    rotation:
      x: 0.0
      y: 0.0
      z: -2.3025030043405124e-13
      w: 1.0
---
transforms:
- header:
    stamp:
      sec: 284
      nanosec: 850000000
    frame_id: base_link
  child_frame_id: wheel_left_link
  transform:
    translation:
      x: 0.0
      y: 0.08
      z: 0.023
    rotation:
      x: -0.7068251811053586
      y: 1.0281973461372978e-07
      z: 1.0290164534162913e-07
      w: 0.7073882691671922
- header:
    stamp:
      sec: 284
      nanosec: 850000000
    frame_id: base_link
  child_frame_id: wheel_right_link
  transform:
    translation:
      x: 0.0
      y: -0.08
      z: 0.023
    rotation:
      x: -0.7068251811053586
      y: 1.0281894553876515e-07
      z: 1.0290085563805261e-07
      w: 0.7073882691671922
---
transforms:
- header:
    stamp:
      sec: 285
      nanosec: 0
    frame_id: map
  child_frame_id: odom
  transform:
    translation:
      x: -9.600834535682958e-09
      y: 1.1241340220766634e-17
      z: -0.0
    rotation:
      x: -0.0
      y: -0.0
      z: 2.652150232496946e-13
      w: 1.0
---
transforms:
- header:
    stamp:
      sec: 284
      nanosec: 860000000
    frame_id: odom
  child_frame_id: base_footprint
  transform:
    translation:
      x: 9.600784785878765e-09
      y: -2.2140387517114153e-21
      z: 0.0
    rotation:
      x: 0.0
      y: 0.0
      z: -2.30250302321057e-13
      w: 1.0
---
transforms:
- header:
    stamp:
      sec: 284
      nanosec: 880000000
    frame_id: odom
  child_frame_id: base_footprint
  transform:
    translation:
      x: 9.600784785878988e-09
      y: -2.2140387517115195e-21
      z: 0.0
    rotation:
      x: 0.0
      y: 0.0
      z: -2.302503031275581e-13
      w: 1.0
---
transforms:
- header:
    stamp:
      sec: 285
      nanosec: 0
    frame_id: map
  child_frame_id: odom
  transform:
    translation:
      x: -9.600834535682958e-09
      y: 1.1241340220766634e-17
      z: -0.0
    rotation:
      x: -0.0
      y: -0.0
      z: 2.652150232496946e-13
      w: 1.0
---
transforms:
- header:
    stamp:
      sec: 284
      nanosec: 900000000
    frame_id: odom
  child_frame_id: base_footprint
  transform:
    translation:
      x: 9.60078478587949e-09
      y: -2.2140387517117508e-21
      z: 0.0
    rotation:
      x: 0.0
      y: 0.0
      z: -2.302503022745281e-13
      w: 1.0
---
transforms:
- header:
    stamp:
      sec: 284
      nanosec: 900000000
    frame_id: base_link
  child_frame_id: wheel_left_link
  transform:
    translation:
      x: 0.0
      y: 0.08
      z: 0.023
    rotation:
      x: -0.7068251811053586
      y: 1.0281973461373489e-07
      z: 1.0290164534163424e-07
      w: 0.7073882691671922
- header:
    stamp:
      sec: 284
      nanosec: 900000000
    frame_id: base_link
  child_frame_id: wheel_right_link
  transform:
    translation:
      x: 0.0
      y: -0.08
      z: 0.023
    rotation:
      x: -0.7068251811053586
      y: 1.0281894553876954e-07
      z: 1.0290085563805701e-07
      w: 0.7073882691671922
---
transforms:
- header:
    stamp:
      sec: 284
      nanosec: 920000000
    frame_id: odom
  child_frame_id: base_footprint
  transform:
    translation:
      x: 9.600784785879208e-09
      y: -2.2140387517116233e-21
      z: 0.0
    rotation:
      x: 0.0
      y: 0.0
      z: -2.3025030603303e-13
      w: 1.0
---
transforms:
- header:
    stamp:
      sec: 285
      nanosec: 100000000
    frame_id: map
  child_frame_id: odom
  transform:
    translation:
      x: -9.600834535682958e-09
      y: 1.1241340220766634e-17
      z: -0.0
    rotation:
      x: -0.0
      y: -0.0
      z: 2.652150232496946e-13
      w: 1.0
---
transforms:
- header:
    stamp:
      sec: 284
      nanosec: 940000000
    frame_id: odom
  child_frame_id: base_footprint
  transform:
    translation:
      x: 9.600784785878424e-09
      y: -2.214038751711264e-21
      z: 0.0
    rotation:
      x: 0.0
      y: 0.0
      z: -2.3025030680334195e-13
      w: 1.0
---
transforms:
- header:
    stamp:
      sec: 284
      nanosec: 950000000
    frame_id: base_link
  child_frame_id: wheel_left_link
  transform:
    translation:
      x: 0.0
      y: 0.08
      z: 0.023
    rotation:
      x: -0.7068251811053586
      y: 1.02819734613722e-07
      z: 1.0290164534162134e-07
      w: 0.7073882691671922
- header:
    stamp:
      sec: 284
      nanosec: 950000000
    frame_id: base_link
  child_frame_id: wheel_right_link
  transform:
    translation:
      x: 0.0
      y: -0.08
      z: 0.023
    rotation:
      x: -0.7068251811053586
      y: 1.0281894553875743e-07
      z: 1.0290085563804488e-07
      w: 0.7073882691671922
---
transforms:
- header:
    stamp:
      sec: 284
      nanosec: 960000000
    frame_id: odom
  child_frame_id: base_footprint
  transform:
    translation:
      x: 9.600784785878234e-09
      y: -2.2140387517111764e-21
      z: 0.0
    rotation:
      x: 0.0
      y: 0.0
      z: -2.302503036393761e-13
      w: 1.0
---
transforms:
- header:
    stamp:
      sec: 285
      nanosec: 100000000
    frame_id: map
  child_frame_id: odom
  transform:
    translation:
      x: -9.600834535682958e-09
      y: 1.1241340220766634e-17
      z: -0.0
    rotation:
      x: -0.0
      y: -0.0
      z: 2.652150232496946e-13
      w: 1.0
---
transforms:
- header:
    stamp:
      sec: 284
      nanosec: 980000000
    frame_id: odom
  child_frame_id: base_footprint
  transform:
    translation:
      x: 9.600784785878279e-09
      y: -2.2140387517111952e-21
      z: 0.0
    rotation:
      x: 0.0
      y: 0.0
      z: -2.302503052265289e-13
      w: 1.0
---
transforms:
- header:
    stamp:
      sec: 285
      nanosec: 100000000
    frame_id: map
  child_frame_id: odom
  transform:
    translation:
      x: -9.600834535682958e-09
      y: 1.1241340220766634e-17
      z: -0.0
    rotation:
      x: -0.0
      y: -0.0
      z: 2.652150232496946e-13
      w: 1.0
---
transforms:
- header:
    stamp:
      sec: 285
      nanosec: 0
    frame_id: odom
  child_frame_id: base_footprint
  transform:
    translation:
      x: 9.600784785878173e-09
      y: -2.2140387517111437e-21
      z: 0.0
    rotation:
      x: 0.0
      y: 0.0
      z: -2.302503052058494e-13
      w: 1.0
---
transforms:
- header:
    stamp:
      sec: 285
      nanosec: 0
    frame_id: base_link
  child_frame_id: wheel_left_link
  transform:
    translation:
      x: 0.0
      y: 0.08
      z: 0.023
    rotation:
      x: -0.7068251811053586
      y: 1.028197346137258e-07
      z: 1.0290164534162514e-07
      w: 0.7073882691671922
- header:
    stamp:
      sec: 285
      nanosec: 0
    frame_id: base_link
  child_frame_id: wheel_right_link
  transform:
    translation:
      x: 0.0
      y: -0.08
      z: 0.023
    rotation:
      x: -0.7068251811053586
      y: 1.0281894553875041e-07
      z: 1.0290085563803787e-07
      w: 0.7073882691671922
---
transforms:
- header:
    stamp:
      sec: 285
      nanosec: 20000000
    frame_id: odom
  child_frame_id: base_footprint
  transform:
    translation:
      x: 9.600784785878029e-09
      y: -2.2140387517110794e-21
      z: 0.0
    rotation:
      x: 0.0
      y: 0.0
      z: -2.3025030486980727e-13
      w: 1.0
---
transforms:
- header:
    stamp:
      sec: 285
      nanosec: 200000000
    frame_id: map
  child_frame_id: odom
  transform:
    translation:
      x: -9.600834535682958e-09
      y: 1.1241340220766634e-17
      z: -0.0
    rotation:
      x: -0.0
      y: -0.0
      z: 2.652150232496946e-13
      w: 1.0
---
transforms:
- header:
    stamp:
      sec: 285
      nanosec: 40000000
    frame_id: odom
  child_frame_id: base_footprint
  transform:
    translation:
      x: 9.600784785877954e-09
      y: -2.2140387517110463e-21
      z: 0.0
    rotation:
      x: 0.0
      y: 0.0
      z: -2.3025030612608783e-13
      w: 1.0
---
transforms:
- header:
    stamp:
      sec: 285
      nanosec: 50000000
    frame_id: base_link
  child_frame_id: wheel_left_link
  transform:
    translation:
      x: 0.0
      y: 0.08
      z: 0.023
    rotation:
      x: -0.7068251811053586
      y: 1.0281973461372458e-07
      z: 1.0290164534162393e-07
      w: 0.7073882691671922
- header:
    stamp:
      sec: 285
      nanosec: 50000000
    frame_id: base_link
  child_frame_id: wheel_right_link
  transform:
    translation:
      x: 0.0
      y: -0.08
      z: 0.023
    rotation:
      x: -0.7068251811053586
      y: 1.0281894553875163e-07
      z: 1.0290085563803909e-07
      w: 0.7073882691671922
---
transforms:
- header:
    stamp:
      sec: 285
      nanosec: 60000000
    frame_id: odom
  child_frame_id: base_footprint
  transform:
    translation:
      x: 9.600784785878353e-09
      y: -2.2140387517112302e-21
      z: 0.0
    rotation:
      x: 0.0
      y: 0.0
      z: -2.3025030347394e-13
      w: 1.0
---
transforms:
- header:
    stamp:
      sec: 285
      nanosec: 200000000
    frame_id: map
  child_frame_id: odom
  transform:
    translation:
      x: -9.600834535682958e-09
      y: 1.1241340220766634e-17
      z: -0.0
    rotation:
      x: -0.0
      y: -0.0
      z: 2.652150232496946e-13
      w: 1.0
---
transforms:
- header:
    stamp:
      sec: 285
      nanosec: 80000000
    frame_id: odom
  child_frame_id: base_footprint
  transform:
    translation:
      x: 9.60078478587859e-09
      y: -2.214038751711338e-21
      z: 0.0
    rotation:
      x: 0.0
      y: 0.0
      z: -2.302503014163282e-13
      w: 1.0
---
transforms:
- header:
    stamp:
      sec: 285
      nanosec: 100000000
    frame_id: odom
  child_frame_id: base_footprint
  transform:
    translation:
      x: 9.600784785878585e-09
      y: -2.2140387517113355e-21
      z: 0.0
    rotation:
      x: 0.0
      y: 0.0
      z: -2.302502980300576e-13
      w: 1.0
---
transforms:
- header:
    stamp:
      sec: 285
      nanosec: 100000000
    frame_id: base_link
  child_frame_id: wheel_left_link
  transform:
    translation:
      x: 0.0
      y: 0.08
      z: 0.023
    rotation:
      x: -0.7068251811053586
      y: 1.028197346137179e-07
      z: 1.0290164534161724e-07
      w: 0.7073882691671922
- header:
    stamp:
      sec: 285
      nanosec: 100000000
    frame_id: base_link
  child_frame_id: wheel_right_link
  transform:
    translation:
      x: 0.0
      y: -0.08
      z: 0.023
    rotation:
      x: -0.7068251811053586
      y: 1.0281894553876711e-07
      z: 1.029008556380546e-07
      w: 0.7073882691671922
---
transforms:
- header:
    stamp:
      sec: 285
      nanosec: 200000000
    frame_id: map
  child_frame_id: odom
  transform:
    translation:
      x: -9.600834535682958e-09
      y: 1.1241340220766634e-17
      z: -0.0
    rotation:
      x: -0.0
      y: -0.0
      z: 2.652150232496946e-13
      w: 1.0
---
transforms:
- header:
    stamp:
      sec: 285
      nanosec: 120000000
    frame_id: odom
  child_frame_id: base_footprint
  transform:
    translation:
      x: 9.600784785879154e-09
      y: -2.2140387517115973e-21
      z: 0.0
    rotation:
      x: 0.0
      y: 0.0
      z: -2.302502980765865e-13
      w: 1.0
---
transforms:
- header:
    stamp:
      sec: 285
      nanosec: 140000000
    frame_id: odom
  child_frame_id: base_footprint
  transform:
    translation:
      x: 9.600784785879503e-09
      y: -2.2140387517117564e-21
      z: 0.0
    rotation:
      x: 0.0
      y: 0.0
      z: -2.302503039547387e-13
      w: 1.0
---
transforms:
- header:
    stamp:
      sec: 285
      nanosec: 300000000
    frame_id: map
  child_frame_id: odom
  transform:
    translation:
      x: -9.600834535682958e-09
      y: 1.1241340220766634e-17
      z: -0.0
    rotation:
      x: -0.0
      y: -0.0
      z: 2.652150232496946e-13
      w: 1.0
---
transforms:
- header:
    stamp:
      sec: 285
      nanosec: 150000000
    frame_id: base_link
  child_frame_id: wheel_left_link
  transform:
    translation:
      x: 0.0
      y: 0.08
      z: 0.023
    rotation:
      x: -0.7068251811053586
      y: 1.0281973461373672e-07
      z: 1.0290164534163606e-07
      w: 0.7073882691671922
- header:
    stamp:
      sec: 285
      nanosec: 150000000
    frame_id: base_link
  child_frame_id: wheel_right_link
  transform:
    translation:
      x: 0.0
      y: -0.08
      z: 0.023
    rotation:
      x: -0.7068251811053586
      y: 1.0281894553876511e-07
      z: 1.0290085563805257e-07
      w: 0.7073882691671922
---
transforms:
- header:
    stamp:
      sec: 285
      nanosec: 160000000
    frame_id: odom
  child_frame_id: base_footprint
  transform:
    translation:
      x: 9.600784785879205e-09
      y: -2.2140387517116176e-21
      z: 0.0
    rotation:
      x: 0.0
      y: 0.0
      z: -2.3025030341190144e-13
      w: 1.0
---
transforms:
- header:
    stamp:
      sec: 285
      nanosec: 180000000
    frame_id: odom
  child_frame_id: base_footprint
  transform:
    translation:
      x: 9.60078478587895e-09
      y: -2.2140387517115014e-21
      z: 0.0
    rotation:
      x: 0.0
      y: 0.0
      z: -2.3025030094586924e-13
      w: 1.0
---
transforms:
- header:
    stamp:
      sec: 285
      nanosec: 300000000
    frame_id: map
  child_frame_id: odom
  transform:
    translation:
      x: -9.600834535682958e-09
      y: 1.1241340220766634e-17
      z: -0.0
    rotation:
      x: -0.0
      y: -0.0
      z: 2.652150232496946e-13
      w: 1.0
---
transforms:
- header:
    stamp:
      sec: 285
      nanosec: 200000000
    frame_id: base_link
  child_frame_id: wheel_left_link
  transform:
    translation:
      x: 0.0
      y: 0.08
      z: 0.023
    rotation:
      x: -0.7068251811053586
      y: 1.028197346137252e-07
      z: 1.0290164534162453e-07
      w: 0.7073882691671922
- header:
    stamp:
      sec: 285
      nanosec: 200000000
    frame_id: base_link
  child_frame_id: wheel_right_link
  transform:
    translation:
      x: 0.0
      y: -0.08
      z: 0.023
    rotation:
      x: -0.7068251811053586
      y: 1.0281894553876673e-07
      z: 1.029008556380542e-07
      w: 0.7073882691671922
---
transforms:
- header:
    stamp:
      sec: 285
      nanosec: 200000000
    frame_id: odom
  child_frame_id: base_footprint
  transform:
    translation:
      x: 9.600784785878909e-09
      y: -2.2140387517114826e-21
      z: 0.0
    rotation:
      x: 0.0
      y: 0.0
      z: -2.302503002686151e-13
      w: 1.0
---
transforms:
- header:
    stamp:
      sec: 285
      nanosec: 220000000
    frame_id: odom
  child_frame_id: base_footprint
  transform:
    translation:
      x: 9.600784785878846e-09
      y: -2.2140387517114544e-21
      z: 0.0
    rotation:
      x: 0.0
      y: 0.0
      z: -2.3025029720287697e-13
      w: 1.0
---
transforms:
- header:
    stamp:
      sec: 285
      nanosec: 400000000
    frame_id: map
  child_frame_id: odom
  transform:
    translation:
      x: -9.600834535682958e-09
      y: 1.1241340220766634e-17
      z: -0.0
    rotation:
      x: -0.0
      y: -0.0
      z: 2.652150232496946e-13
      w: 1.0
---
transforms:
- header:
    stamp:
      sec: 285
      nanosec: 240000000
    frame_id: odom
  child_frame_id: base_footprint
  transform:
    translation:
      x: 9.600784785878848e-09
      y: -2.2140387517114555e-21
      z: 0.0
    rotation:
      x: 0.0
      y: 0.0
      z: -2.302502999584224e-13
      w: 1.0
---
transforms:
- header:
    stamp:
      sec: 285
      nanosec: 250000000
    frame_id: base_link
  child_frame_id: wheel_left_link
  transform:
    translation:
      x: 0.0
      y: 0.08
      z: 0.023
    rotation:
      x: -0.7068251811053586
      y: 1.0281973461372176e-07
      z: 1.0290164534162109e-07
      w: 0.7073882691671922
- header:
    stamp:
      sec: 285
      nanosec: 250000000
    frame_id: base_link
  child_frame_id: wheel_right_link
  transform:
    translation:
      x: 0.0
      y: -0.08
      z: 0.023
    rotation:
      x: -0.7068251811053586
      y: 1.0281894553876064e-07
      z: 1.029008556380481e-07
      w: 0.7073882691671922
---
transforms:
- header:
    stamp:
      sec: 285
      nanosec: 260000000
    frame_id: odom
  child_frame_id: base_footprint
  transform:
    translation:
      x: 9.600784785878557e-09
      y: -2.2140387517113212e-21
      z: 0.0
    rotation:
      x: 0.0
      y: 0.0
      z: -2.302503007597536e-13
      w: 1.0
---
transforms:
- header:
    stamp:
      sec: 285
      nanosec: 400000000
    frame_id: map
  child_frame_id: odom
  transform:
    translation:
      x: -9.600834535682958e-09
      y: 1.1241340220766634e-17
      z: -0.0
    rotation:
      x: -0.0
      y: -0.0
      z: 2.652150232496946e-13
      w: 1.0
---
transforms:
- header:
    stamp:
      sec: 285
      nanosec: 280000000
    frame_id: odom
  child_frame_id: base_footprint
  transform:
    translation:
      x: 9.60078478587804e-09
      y: -2.2140387517110843e-21
      z: 0.0
    rotation:
      x: 0.0
      y: 0.0
      z: -2.3025029992223323e-13
      w: 1.0
---
transforms:
- header:
    stamp:
      sec: 285
      nanosec: 300000000
    frame_id: odom
  child_frame_id: base_footprint
  transform:
    translation:
      x: 9.600784785878358e-09
      y: -2.2140387517112302e-21
      z: 0.0
    rotation:
      x: 0.0
      y: 0.0
      z: -2.302502962878084e-13
      w: 1.0
---
transforms:
- header:
    stamp:
      sec: 285
      nanosec: 300000000
    frame_id: base_link
  child_frame_id: wheel_left_link
  transform:
    translation:
      x: 0.0
      y: 0.08
      z: 0.023
    rotation:
      x: -0.7068251811053586
      y: 1.028197346137125e-07
      z: 1.0290164534161182e-07
      w: 0.7073882691671922
- header:
    stamp:
      sec: 285
      nanosec: 300000000
    frame_id: base_link
  child_frame_id: wheel_right_link
  transform:
    translation:
      x: 0.0
      y: -0.08
      z: 0.023
    rotation:
      x: -0.7068251811053586
      y: 1.0281894553876766e-07
      z: 1.0290085563805514e-07
      w: 0.7073882691671922
---
transforms:
- header:
    stamp:
      sec: 285
      nanosec: 400000000
    frame_id: map
  child_frame_id: odom
  transform:
    translation:
      x: -9.600834535682958e-09
      y: 1.1241340220766634e-17
      z: -0.0
    rotation:
      x: -0.0
      y: -0.0
      z: 2.652150232496946e-13
      w: 1.0
---
transforms:
- header:
    stamp:
      sec: 285
      nanosec: 320000000
    frame_id: odom
  child_frame_id: base_footprint
  transform:
    translation:
      x: 9.600784785879278e-09
      y: -2.2140387517116534e-21
      z: 0.0
    rotation:
      x: 0.0
      y: 0.0
      z: -2.302502978025829e-13
      w: 1.0
---
transforms:
- header:
    stamp:
      sec: 285
      nanosec: 340000000
    frame_id: odom
  child_frame_id: base_footprint
  transform:
    translation:
      x: 9.6007847858793e-09
      y: -2.2140387517116658e-21
      z: 0.0
    rotation:
      x: 0.0
      y: 0.0
      z: -2.3025029842813825e-13
      w: 1.0
---
transforms:
- header:
    stamp:
      sec: 285
      nanosec: 500000000
    frame_id: map
  child_frame_id: odom
  transform:
    translation:
      x: -9.600834535682958e-09
      y: 1.1241340220766634e-17
      z: -0.0
    rotation:
      x: -0.0
      y: -0.0
      z: 2.652150232496946e-13
      w: 1.0
---
transforms:
- header:
    stamp:
      sec: 285
      nanosec: 350000000
    frame_id: base_link
  child_frame_id: wheel_left_link
  transform:
    translation:
      x: 0.0
      y: 0.08
      z: 0.023
    rotation:
      x: -0.7068251811053586
      y: 1.0281973461371676e-07
      z: 1.029016453416161e-07
      w: 0.7073882691671922
- header:
    stamp:
      sec: 285
      nanosec: 350000000
    frame_id: base_link
  child_frame_id: wheel_right_link
  transform:
    translation:
      x: 0.0
      y: -0.08
      z: 0.023
    rotation:
      x: -0.7068251811053586
      y: 1.0281894553877415e-07
      z: 1.0290085563806163e-07
      w: 0.7073882691671922
---
transforms:
- header:
    stamp:
      sec: 285
      nanosec: 360000000
    frame_id: odom
  child_frame_id: base_footprint
  transform:
    translation:
      x: 9.600784785878917e-09
      y: -2.2140387517114913e-21
      z: 0.0
    rotation:
      x: 0.0
      y: 0.0
      z: -2.3025029564674344e-13
      w: 1.0
---
transforms:
- header:
    stamp:
      sec: 285
      nanosec: 380000000
    frame_id: odom
  child_frame_id: base_footprint
  transform:
    translation:
      x: 9.600784785879506e-09
      y: -2.2140387517117613e-21
      z: 0.0
    rotation:
      x: 0.0
      y: 0.0
      z: -2.3025029862976353e-13
      w: 1.0
---
transforms:
- header:
    stamp:
      sec: 285
      nanosec: 500000000
    frame_id: map
  child_frame_id: odom
  transform:
    translation:
      x: -9.600834535682958e-09
      y: 1.1241340220766634e-17
      z: -0.0
    rotation:
      x: -0.0
      y: -0.0
      z: 2.652150232496946e-13
      w: 1.0
---
transforms:
- header:
    stamp:
      sec: 285
      nanosec: 400000000
    frame_id: base_link
  child_frame_id: wheel_left_link
  transform:
    translation:
      x: 0.0
      y: 0.08
      z: 0.023
    rotation:
      x: -0.7068251811053586
      y: 1.0281973461373377e-07
      z: 1.0290164534163311e-07
      w: 0.7073882691671922
- header:
    stamp:
      sec: 285
      nanosec: 400000000
    frame_id: base_link
  child_frame_id: wheel_right_link
  transform:
    translation:
      x: 0.0
      y: -0.08
      z: 0.023
    rotation:
      x: -0.7068251811053586
      y: 1.0281894553877529e-07
      z: 1.0290085563806277e-07
      w: 0.7073882691671922
---
transforms:
- header:
    stamp:
      sec: 285
      nanosec: 400000000
    frame_id: odom
  child_frame_id: base_footprint
  transform:
    translation:
      x: 9.600784785879705e-09
      y: -2.2140387517118516e-21
      z: 0.0
    rotation:
      x: 0.0
      y: 0.0
      z: -2.302503002686151e-13
      w: 1.0
---
transforms:
- header:
    stamp:
      sec: 285
      nanosec: 600000000
    frame_id: map
  child_frame_id: odom
  transform:
    translation:
      x: -9.600834535682958e-09
      y: 1.1241340220766634e-17
      z: -0.0
    rotation:
      x: -0.0
      y: -0.0
      z: 2.652150232496946e-13
      w: 1.0
---
transforms:
- header:
    stamp:
      sec: 285
      nanosec: 420000000
    frame_id: odom
  child_frame_id: base_footprint
  transform:
    translation:
      x: 9.600784785879463e-09
      y: -2.2140387517117365e-21
      z: 0.0
    rotation:
      x: 0.0
      y: 0.0
      z: -2.302503010079078e-13
      w: 1.0
---
transforms:
- header:
    stamp:
      sec: 285
      nanosec: 440000000
    frame_id: odom
  child_frame_id: base_footprint
  transform:
    translation:
      x: 9.600784785878892e-09
      y: -2.2140387517114724e-21
      z: 0.0
    rotation:
      x: 0.0
      y: 0.0
      z: -2.3025030159727397e-13
      w: 1.0
---
transforms:
- header:
    stamp:
      sec: 285
      nanosec: 450000000
    frame_id: base_link
  child_frame_id: wheel_left_link
  transform:
    translation:
      x: 0.0
      y: 0.08
      z: 0.023
    rotation:
      x: -0.7068251811053586
      y: 1.0281973461372866e-07
      z: 1.02901645341628e-07
      w: 0.7073882691671922
- header:
    stamp:
      sec: 285
      nanosec: 450000000
    frame_id: base_link
  child_frame_id: wheel_right_link
  transform:
    translation:
      x: 0.0
      y: -0.08
      z: 0.023
    rotation:
      x: -0.7068251811053586
      y: 1.0281894553876964e-07
      z: 1.0290085563805713e-07
      w: 0.7073882691671922
---
transforms:
- header:
    stamp:
      sec: 285
      nanosec: 460000000
    frame_id: odom
  child_frame_id: base_footprint
  transform:
    translation:
      x: 9.60078478587951e-09
      y: -2.2140387517117572e-21
      z: 0.0
    rotation:
      x: 0.0
      y: 0.0
      z: -2.302502997309477e-13
      w: 1.0
---
transforms:
- header:
    stamp:
      sec: 285
      nanosec: 600000000
    frame_id: map
  child_frame_id: odom
  transform:
    translation:
      x: -9.600834535682958e-09
      y: 1.1241340220766634e-17
      z: -0.0
    rotation:
      x: -0.0
      y: -0.0
      z: 2.652150232496946e-13
      w: 1.0
---
transforms:
- header:
    stamp:
      sec: 285
      nanosec: 480000000
    frame_id: odom
  child_frame_id: base_footprint
  transform:
    translation:
      x: 9.600784785878821e-09
      y: -2.214038751711442e-21
      z: 0.0
    rotation:
      x: 0.0
      y: 0.0
      z: -2.3025029601380484e-13
      w: 1.0
---
transforms:
- header:
    stamp:
      sec: 285
      nanosec: 500000000
    frame_id: base_link
  child_frame_id: wheel_left_link
  transform:
    translation:
      x: 0.0
      y: 0.08
      z: 0.023
    rotation:
      x: -0.7068251811053586
      y: 1.0281973461370673e-07
      z: 1.0290164534160606e-07
      w: 0.7073882691671922
- header:
    stamp:
      sec: 285
      nanosec: 500000000
    frame_id: base_link
  child_frame_id: wheel_right_link
  transform:
    translation:
      x: 0.0
      y: -0.08
      z: 0.023
    rotation:
      x: -0.7068251811053586
      y: 1.028189455387727e-07
      z: 1.0290085563806017e-07
      w: 0.7073882691671922
---
transforms:
- header:
    stamp:
      sec: 285
      nanosec: 500000000
    frame_id: odom
  child_frame_id: base_footprint
  transform:
    translation:
      x: 9.600784785878328e-09
      y: -2.2140387517112144e-21
      z: 0.0
    rotation:
      x: 0.0
      y: 0.0
      z: -2.302502931393522e-13
      w: 1.0
---
transforms:
- header:
    stamp:
      sec: 285
      nanosec: 600000000
    frame_id: map
  child_frame_id: odom
  transform:
    translation:
      x: -9.600834535682958e-09
      y: 1.1241340220766634e-17
      z: -0.0
    rotation:
      x: -0.0
      y: -0.0
      z: 2.652150232496946e-13
      w: 1.0
---
transforms:
- header:
    stamp:
      sec: 285
      nanosec: 520000000
    frame_id: odom
  child_frame_id: base_footprint
  transform:
    translation:
      x: 9.60078478587814e-09
      y: -2.2140387517111286e-21
      z: 0.0
    rotation:
      x: 0.0
      y: 0.0
      z: -2.302502911334392e-13
      w: 1.0
---
transforms:
- header:
    stamp:
      sec: 285
      nanosec: 540000000
    frame_id: odom
  child_frame_id: base_footprint
  transform:
    translation:
      x: 9.600784785877931e-09
      y: -2.2140387517110327e-21
      z: 0.0
    rotation:
      x: 0.0
      y: 0.0
      z: -2.3025028769029993e-13
      w: 1.0
---
transforms:
- header:
    stamp:
      sec: 285
      nanosec: 700000000
    frame_id: map
  child_frame_id: odom
  transform:
    translation:
      x: -9.600834535682958e-09
      y: 1.1241340220766634e-17
      z: -0.0
    rotation:
      x: -0.0
      y: -0.0
      z: 2.652150232496946e-13
      w: 1.0
---
transforms:
- header:
    stamp:
      sec: 285
      nanosec: 550000000
    frame_id: base_link
  child_frame_id: wheel_left_link
  transform:
    translation:
      x: 0.0
      y: 0.08
      z: 0.023
    rotation:
      x: -0.7068251811053586
      y: 1.028197346136937e-07
      z: 1.0290164534159304e-07
      w: 0.7073882691671922
- header:
    stamp:
      sec: 285
      nanosec: 550000000
    frame_id: base_link
  child_frame_id: wheel_right_link
  transform:
    translation:
      x: 0.0
      y: -0.08
      z: 0.023
    rotation:
      x: -0.7068251811053586
      y: 1.028189455387751e-07
      z: 1.0290085563806257e-07
      w: 0.7073882691671922
---
transforms:
- header:
    stamp:
      sec: 285
      nanosec: 560000000
    frame_id: odom
  child_frame_id: base_footprint
  transform:
    translation:
      x: 9.60078478587752e-09
      y: -2.214038751710841e-21
      z: 0.0
    rotation:
      x: 0.0
      y: 0.0
      z: -2.302502906267911e-13
      w: 1.0
---
transforms:
- header:
    stamp:
      sec: 285
      nanosec: 580000000
    frame_id: odom
  child_frame_id: base_footprint
  transform:
    translation:
      x: 9.600784785877339e-09
      y: -2.2140387517107566e-21
      z: 0.0
    rotation:
      x: 0.0
      y: 0.0
      z: -2.3025028560683876e-13
      w: 1.0
---
transforms:
- header:
    stamp:
      sec: 285
      nanosec: 700000000
    frame_id: map
  child_frame_id: odom
  transform:
    translation:
      x: -9.600834535682958e-09
      y: 1.1241340220766634e-17
      z: -0.0
    rotation:
      x: -0.0
      y: -0.0
      z: 2.652150232496946e-13
      w: 1.0
---
transforms:
- header:
    stamp:
      sec: 285
      nanosec: 600000000
    frame_id: odom
  child_frame_id: base_footprint
  transform:
    translation:
      x: 9.600784785876925e-09
      y: -2.214038751710565e-21
      z: 0.0
    rotation:
      x: 0.0
      y: 0.0
      z: -2.3025028562751827e-13
      w: 1.0
---
transforms:
- header:
    stamp:
      sec: 285
      nanosec: 600000000
    frame_id: base_link
  child_frame_id: wheel_left_link
  transform:
    translation:
      x: 0.0
      y: 0.08
      z: 0.023
    rotation:
      x: -0.7068251811053586
      y: 1.0281973461367876e-07
      z: 1.0290164534157807e-07
      w: 0.7073882691671922
- header:
    stamp:
      sec: 285
      nanosec: 600000000
    frame_id: base_link
  child_frame_id: wheel_right_link
  transform:
    translation:
      x: 0.0
      y: -0.08
      z: 0.023
    rotation:
      x: -0.7068251811053586
      y: 1.0281894553877046e-07
      z: 1.0290085563805795e-07
      w: 0.7073882691671922
---
transforms:
- header:
    stamp:
      sec: 285
      nanosec: 800000000
    frame_id: map
  child_frame_id: odom
  transform:
    translation:
      x: -9.600834535682958e-09
      y: 1.1241340220766634e-17
      z: -0.0
    rotation:
      x: -0.0
      y: -0.0
      z: 2.652150232496946e-13
      w: 1.0
---
transforms:
- header:
    stamp:
      sec: 285
      nanosec: 620000000
    frame_id: odom
  child_frame_id: base_footprint
  transform:
    translation:
